{"type":"FeatureCollection","features":[{"type":"Feature","id":1,"geometry":{"type":"Point","coordinates":[-85.151172526113,34.4398832786153]},"properties":{"OBJECTID":1,"GM_Region":"1","PropName":"ARROWHEAD WMA","Name":null,"Surface":null,"Management":"GM","Comments":null,"GlobalID":"ab312576-4027-4500-84a4-f43fb5c48adb"}},{"type":"Feature","id":2,"geometry":{"type":"Point","coordinates":[-85.2791693319414,34.3131870299402]},"properties":{"OBJECTID":2,"GM_Region":"1","PropName":"BERRY COLLEGE WMA","Name":null,"Surface":null,"Management":"GM","Comments":null,"GlobalID":"869b7246-da92-4049-8ac1-dd5b1118337e"}},{"type":"Feature","id":3,"geometry":{"type":"Point","coordinates":[-84.565635341383,34.8814368754621]},"properties":{"OBJECTID":3,"GM_Region":"1","PropName":"COHUTTA WMA","Name":"Three Forks","Surface":"Gravel","Management":"GM","Comments":null,"GlobalID":"c3f38d57-c5e8-429c-be72-2f9d652f1788"}},{"type":"Feature","id":4,"geometry":{"type":"Point","coordinates":[-84.5181040099,34.9339465149556]},"properties":{"OBJECTID":4,"GM_Region":"1","PropName":"COHUTTA WMA","Name":"Daily Gap PL","Surface":null,"Management":"GM","Comments":null,"GlobalID":"ccfb100c-4981-484b-b38d-bd2d551fd467"}},{"type":"Feature","id":5,"geometry":{"type":"Point","coordinates":[-84.5404267434725,34.8717589821835]},"properties":{"OBJECTID":5,"GM_Region":"1","PropName":"COHUTTA WMA","Name":"Buddy Cove Gap PL","Surface":"Gravel","Management":"GM","Comments":null,"GlobalID":"d121f9cc-dcc5-47be-b1b5-d24c3fd2885d"}},{"type":"Feature","id":6,"geometry":{"type":"Point","coordinates":[-84.5809869276379,34.8543123891678]},"properties":{"OBJECTID":6,"GM_Region":"1","PropName":"COHUTTA WMA","Name":"Betty Gap PL","Surface":null,"Management":"GM","Comments":null,"GlobalID":"13921681-acc6-411c-9ef6-d01492144f2c"}},{"type":"Feature","id":7,"geometry":{"type":"Point","coordinates":[-84.5185057625872,34.8093996610432]},"properties":{"OBJECTID":7,"GM_Region":"1","PropName":"COHUTTA WMA","Name":"Loggy Flats PL","Surface":null,"Management":"GM","Comments":null,"GlobalID":"99ae7eae-7b49-4929-a475-5bdd6fe62c77"}},{"type":"Feature","id":8,"geometry":{"type":"Point","coordinates":[-84.6154272467077,34.8536702859337]},"properties":{"OBJECTID":8,"GM_Region":"1","PropName":"COHUTTA WMA","Name":"Chestnut Lead PL","Surface":null,"Management":"GM","Comments":null,"GlobalID":"2940d76c-9a8b-4ce5-8b97-1b32b5203a1d"}},{"type":"Feature","id":9,"geometry":{"type":"Point","coordinates":[-84.635275801808,34.8612995773123]},"properties":{"OBJECTID":9,"GM_Region":"1","PropName":"COHUTTA WMA","Name":"Ball Field PL","Surface":null,"Management":"GM","Comments":null,"GlobalID":"91eccce5-6a69-49fb-9b13-b1e811e3bcb8"}},{"type":"Feature","id":10,"geometry":{"type":"Point","coordinates":[-84.6968794961304,34.8349757815527]},"properties":{"OBJECTID":10,"GM_Region":"1","PropName":"COHUTTA WMA","Name":"Windy Gap Cycle Trail PL","Surface":null,"Management":"GM","Comments":null,"GlobalID":"e7d5a2f1-b042-4bd6-b8e8-26a6a5c893a7"}},{"type":"Feature","id":11,"geometry":{"type":"Point","coordinates":[-84.6494817403503,34.8539673617598]},"properties":{"OBJECTID":11,"GM_Region":"1","PropName":"COHUTTA WMA","Name":"Tibbs Trail PL","Surface":null,"Management":"GM","Comments":null,"GlobalID":"e78679f7-d5eb-4ffc-b934-b2e638854280"}},{"type":"Feature","id":12,"geometry":{"type":"Point","coordinates":[-84.6672585897368,34.9402807733754]},"properties":{"OBJECTID":12,"GM_Region":"1","PropName":"COHUTTA WMA","Name":"Murray's Lake PL","Surface":null,"Management":"GM","Comments":null,"GlobalID":"a14a46ef-b141-4511-b247-a2f27c4b9902"}},{"type":"Feature","id":13,"geometry":{"type":"Point","coordinates":[-84.6767689097632,34.9263791946732]},"properties":{"OBJECTID":13,"GM_Region":"1","PropName":"COHUTTA WMA","Name":"Pleasant Gap PL","Surface":null,"Management":"GM","Comments":null,"GlobalID":"99b4d0f0-6989-4212-ae6b-406641b864cb"}},{"type":"Feature","id":14,"geometry":{"type":"Point","coordinates":[-84.6379146681677,34.980360818144]},"properties":{"OBJECTID":14,"GM_Region":"1","PropName":"COHUTTA WMA","Name":"Cottonwood Patch PL","Surface":null,"Management":"GM","Comments":null,"GlobalID":"03bb892c-bbaa-41ff-b0e0-1b4b3b7dfdb6"}},{"type":"Feature","id":15,"geometry":{"type":"Point","coordinates":[-84.6051224686017,34.9503165546679]},"properties":{"OBJECTID":15,"GM_Region":"1","PropName":"COHUTTA WMA","Name":"Rice Camp PL","Surface":null,"Management":"GM","Comments":null,"GlobalID":"101b9c15-d994-4639-99b1-33ab05a1158b"}},{"type":"Feature","id":16,"geometry":{"type":"Point","coordinates":[-84.6436331797407,34.9019361800798]},"properties":{"OBJECTID":16,"GM_Region":"1","PropName":"COHUTTA WMA","Name":"Hickory Creek PL","Surface":"Gravel","Management":"GM","Comments":null,"GlobalID":"aedeef2d-bd85-4e0b-92c1-84da72709825"}},{"type":"Feature","id":17,"geometry":{"type":"Point","coordinates":[-84.5595703467956,34.812614317208]},"properties":{"OBJECTID":17,"GM_Region":"1","PropName":"COHUTTA WMA","Name":"Bear Creek PL","Surface":null,"Management":"GM","Comments":null,"GlobalID":"edfcb6e6-b107-4ee0-8d67-b31cb650b2c0"}},{"type":"Feature","id":18,"geometry":{"type":"Point","coordinates":[-84.588429971759,34.9892651508772]},"properties":{"OBJECTID":18,"GM_Region":"1","PropName":"COHUTTA WMA","Name":"Beech Bottom PL","Surface":null,"Management":"GM","Comments":null,"GlobalID":"02c2a5e4-63f5-4a10-afba-e6f2d7c7501e"}},{"type":"Feature","id":19,"geometry":{"type":"Point","coordinates":[-84.6587468314689,34.9386676964466]},"properties":{"OBJECTID":19,"GM_Region":"1","PropName":"COHUTTA WMA","Name":"Conasauga River Trailhead PL","Surface":null,"Management":"GM","Comments":null,"GlobalID":"3eb6cb82-71d5-45df-acaf-22543a763b05"}},{"type":"Feature","id":20,"geometry":{"type":"Point","coordinates":[-84.6518634505565,34.812211948338]},"properties":{"OBJECTID":20,"GM_Region":"1","PropName":"COHUTTA WMA","Name":"Emery Creek PL","Surface":null,"Management":"GM","Comments":null,"GlobalID":"c76572f5-0bf0-405b-bc44-1e6bd570e62f"}},{"type":"Feature","id":21,"geometry":{"type":"Point","coordinates":[-84.6052692731167,34.7946974522239]},"properties":{"OBJECTID":21,"GM_Region":"1","PropName":"COHUTTA WMA","Name":"Pinhoti PL","Surface":null,"Management":"GM","Comments":null,"GlobalID":"670acea2-65e8-42cc-8c54-3ead96dc3a36"}},{"type":"Feature","id":22,"geometry":{"type":"Point","coordinates":[-85.4688037888448,34.5343841703743]},"properties":{"OBJECTID":22,"GM_Region":"1","PropName":"OTTING TRACT WMA","Name":null,"Surface":null,"Management":"GM","Comments":null,"GlobalID":"f2097842-ff48-43d1-8199-a138be99de85"}},{"type":"Feature","id":23,"geometry":{"type":"Point","coordinates":[-84.3022812641934,34.7833238262054]},"properties":{"OBJECTID":23,"GM_Region":"1","PropName":"RICH MOUNTAIN WMA","Name":null,"Surface":null,"Management":"GM","Comments":null,"GlobalID":"b851a75f-ea5d-43d2-8fdc-0a9e4ea87a8e"}},{"type":"Feature","id":24,"geometry":{"type":"Point","coordinates":[-84.9043808018049,34.0203454925748]},"properties":{"OBJECTID":24,"GM_Region":"1","PropName":"SHEFFIELD WMA","Name":null,"Surface":null,"Management":"GM","Comments":null,"GlobalID":"f408daca-2eaa-40c4-8a4e-0ded6da320d0"}},{"type":"Feature","id":25,"geometry":{"type":"Point","coordinates":[-85.4564604279708,34.6719644144836]},"properties":{"OBJECTID":25,"GM_Region":"1","PropName":"ZAHND WMA","Name":null,"Surface":null,"Management":"GM","Comments":null,"GlobalID":"58ecb752-7a1b-4fc7-b61b-c11239d81fe6"}},{"type":"Feature","id":26,"geometry":{"type":"Point","coordinates":[-83.1393774137634,34.1919634530196]},"properties":{"OBJECTID":26,"GM_Region":"2","PropName":"BROAD RIVER WMA","Name":null,"Surface":"Gravel","Management":"GM","Comments":null,"GlobalID":"08be0740-df38-478e-b854-8fe67ee6fa83"}},{"type":"Feature","id":27,"geometry":{"type":"Point","coordinates":[-83.1437922180409,34.1866129827372]},"properties":{"OBJECTID":27,"GM_Region":"2","PropName":"BROAD RIVER WMA","Name":null,"Surface":"Gravel","Management":"GM","Comments":null,"GlobalID":"46c2b52e-f951-40fd-8184-3ab000112fb4"}},{"type":"Feature","id":28,"geometry":{"type":"Point","coordinates":[-82.0354253382057,32.8705167744555]},"properties":{"OBJECTID":28,"GM_Region":"4","PropName":"BIG DUKES POND WMA","Name":null,"Surface":null,"Management":"GM","Comments":null,"GlobalID":"12f693c9-2f54-4f1c-8b34-79f4ecef95b2"}},{"type":"Feature","id":29,"geometry":{"type":"Point","coordinates":[-81.5501984589772,32.884372438216]},"properties":{"OBJECTID":29,"GM_Region":"4","PropName":"DIXON BAY WMA","Name":null,"Surface":null,"Management":"GM","Comments":null,"GlobalID":"ceb510a4-b045-45da-81d4-0573fbc22d0c"}},{"type":"Feature","id":30,"geometry":{"type":"Point","coordinates":[-81.7150765484001,32.8907771486294]},"properties":{"OBJECTID":30,"GM_Region":"4","PropName":"HILTONIA WMA","Name":null,"Surface":null,"Management":"GM","Comments":null,"GlobalID":"884c90e8-6be7-41bd-8e07-ea15f2ae3795"}},{"type":"Feature","id":31,"geometry":{"type":"Point","coordinates":[-81.8956137723562,33.1351224376121]},"properties":{"OBJECTID":31,"GM_Region":"3","PropName":"MEAD FARM WMA","Name":null,"Surface":null,"Management":"GM","Comments":null,"GlobalID":"b0947314-a871-42c8-99cc-9d961529e605"}},{"type":"Feature","id":32,"geometry":{"type":"Point","coordinates":[-81.9862264832502,33.4179548188942]},"properties":{"OBJECTID":32,"GM_Region":"3","PropName":"PHINIZY SWAMP WMA","Name":null,"Surface":null,"Management":"GM","Comments":null,"GlobalID":"8555ea9a-64b2-4c5b-b2e5-299936175992"}},{"type":"Feature","id":33,"geometry":{"type":"Point","coordinates":[-81.9809606949917,33.4021733606189]},"properties":{"OBJECTID":33,"GM_Region":"3","PropName":"PHINIZY SWAMP WMA","Name":null,"Surface":null,"Management":"GM","Comments":null,"GlobalID":"01d03716-6400-4d69-a7ab-336eaa4547bf"}},{"type":"Feature","id":34,"geometry":{"type":"Point","coordinates":[-82.0217772275578,33.3469685417562]},"properties":{"OBJECTID":34,"GM_Region":"3","PropName":"SPIRIT CREEK FOREST WMA","Name":null,"Surface":null,"Management":"GM","Comments":null,"GlobalID":"2f2cbc0a-8507-4c85-9829-19fd63378d40"}},{"type":"Feature","id":35,"geometry":{"type":"Point","coordinates":[-82.0356926975443,33.3567102657175]},"properties":{"OBJECTID":35,"GM_Region":"3","PropName":"SPIRIT CREEK FOREST WMA","Name":null,"Surface":null,"Management":"GM","Comments":null,"GlobalID":"977a87fd-3b91-45e9-8a53-69316923621b"}},{"type":"Feature","id":36,"geometry":{"type":"Point","coordinates":[-83.6784431423948,33.6255924768976]},"properties":{"OBJECTID":36,"GM_Region":"3","PropName":"WALTON WMA","Name":null,"Surface":null,"Management":"GM","Comments":null,"GlobalID":"f533da86-2796-44c0-acee-f1a29e1e5490"}},{"type":"Feature","id":37,"geometry":{"type":"Point","coordinates":[-83.6792337484795,33.6348726774697]},"properties":{"OBJECTID":37,"GM_Region":"3","PropName":"WALTON WMA","Name":null,"Surface":null,"Management":"GM","Comments":null,"GlobalID":"b6eaa117-0fc6-4555-8966-068b13977213"}},{"type":"Feature","id":38,"geometry":{"type":"Point","coordinates":[-83.678015965542,33.62396912647]},"properties":{"OBJECTID":38,"GM_Region":"3","PropName":"WALTON WMA","Name":null,"Surface":null,"Management":"GM","Comments":null,"GlobalID":"cc68d7c5-b092-41e9-815a-b95d0cc635a0"}},{"type":"Feature","id":39,"geometry":{"type":"Point","coordinates":[-84.3439739969394,31.5926132113422]},"properties":{"OBJECTID":39,"GM_Region":"5","PropName":"ALBANY NURSERY WMA","Name":null,"Surface":null,"Management":"GM","Comments":null,"GlobalID":"52680305-c93a-42cc-a21c-abdc1cc3a591"}},{"type":"Feature","id":41,"geometry":{"type":"Point","coordinates":[-83.7757353724477,32.4157188674791]},"properties":{"OBJECTID":41,"GM_Region":"3","PropName":"FLAT CREEK PFA","Name":null,"Surface":null,"Management":"FM","Comments":null,"GlobalID":"1c0b3417-3f40-4227-ae4e-03396cf825c4"}},{"type":"Feature","id":42,"geometry":{"type":"Point","coordinates":[-83.769225946571,32.4100481937194]},"properties":{"OBJECTID":42,"GM_Region":"3","PropName":"FLAT CREEK PFA","Name":null,"Surface":"Gravel","Management":"FM","Comments":null,"GlobalID":"ccc074ff-5502-4109-8cce-f6f8dd12e543"}},{"type":"Feature","id":43,"geometry":{"type":"Point","coordinates":[-83.7830979145762,32.397945562899]},"properties":{"OBJECTID":43,"GM_Region":"3","PropName":"FLAT CREEK PFA","Name":null,"Surface":"Dirt","Management":"FM","Comments":null,"GlobalID":"2ff2befe-7373-4fce-a88b-9cef8b897e0d"}},{"type":"Feature","id":44,"geometry":{"type":"Point","coordinates":[-83.7770001736799,32.4073630560866]},"properties":{"OBJECTID":44,"GM_Region":"3","PropName":"FLAT CREEK PFA","Name":null,"Surface":"Paved","Management":"FM","Comments":null,"GlobalID":"a9444164-bdef-4637-86b4-2bbb5912e97b"}},{"type":"Feature","id":45,"geometry":{"type":"Point","coordinates":[-85.1225626767988,31.8435170506997]},"properties":{"OBJECTID":45,"GM_Region":"5","PropName":"LAKE WALTER F. GEORGE WMA","Name":null,"Surface":null,"Management":"GM","Comments":null,"GlobalID":"0a5ab83f-3bc1-4ab0-8059-11e4820cf3b8"}},{"type":"Feature","id":46,"geometry":{"type":"Point","coordinates":[-84.4821000620479,31.34981145558]},"properties":{"OBJECTID":46,"GM_Region":"5","PropName":"ELMODEL WMA","Name":null,"Surface":null,"Management":"GM","Comments":null,"GlobalID":"dabb02fc-97e4-4553-a356-7377e5b23a57"}},{"type":"Feature","id":47,"geometry":{"type":"Point","coordinates":[-84.0626100794728,30.8717939323134]},"properties":{"OBJECTID":47,"GM_Region":"5","PropName":"RIVER CREEK THE ROLF AND ALEXANDRA KAUKA WMA","Name":null,"Surface":null,"Management":"GM","Comments":null,"GlobalID":"bdb5c863-9d04-4fb3-b3fe-a649e079ed19"}},{"type":"Feature","id":48,"geometry":{"type":"Point","coordinates":[-82.2697533929466,31.9058799526744]},"properties":{"OBJECTID":48,"GM_Region":"4","PropName":"MOODY FOREST WMA","Name":null,"Surface":null,"Management":"GM","Comments":null,"GlobalID":"e0578e2e-33e8-4b3b-8a2a-7fc2206101dd"}},{"type":"Feature","id":49,"geometry":{"type":"Point","coordinates":[-82.3130241028764,31.9073737245317]},"properties":{"OBJECTID":49,"GM_Region":"4","PropName":"MOODY FOREST WMA","Name":null,"Surface":null,"Management":"GM","Comments":null,"GlobalID":"4a339e4b-0aee-474c-9165-6d5f7cf7061c"}},{"type":"Feature","id":50,"geometry":{"type":"Point","coordinates":[-82.2793317105769,31.9226694561544]},"properties":{"OBJECTID":50,"GM_Region":"4","PropName":"MOODY FOREST WMA","Name":null,"Surface":null,"Management":"GM","Comments":null,"GlobalID":"083f2d16-d435-4c1d-81d2-847856c2eb9c"}},{"type":"Feature","id":51,"geometry":{"type":"Point","coordinates":[-82.4203114638474,33.3876393436158]},"properties":{"OBJECTID":51,"GM_Region":"3","PropName":"MCDUFFIE PFA","Name":null,"Surface":null,"Management":"FM","Comments":null,"GlobalID":"35c2f252-60be-4b64-bfcd-f679d3e9a069"}},{"type":"Feature","id":52,"geometry":{"type":"Point","coordinates":[-82.4232777016315,33.3855324060825]},"properties":{"OBJECTID":52,"GM_Region":"3","PropName":"MCDUFFIE PFA","Name":null,"Surface":null,"Management":"FM","Comments":null,"GlobalID":"90f0aa0a-bc20-4ffa-8893-f57e96bc2398"}},{"type":"Feature","id":53,"geometry":{"type":"Point","coordinates":[-82.4241143743826,33.3827218568929]},"properties":{"OBJECTID":53,"GM_Region":"3","PropName":"MCDUFFIE PFA","Name":null,"Surface":null,"Management":"FM","Comments":null,"GlobalID":"e3c38b96-8fa0-4799-aa87-f6f77d6b3976"}},{"type":"Feature","id":54,"geometry":{"type":"Point","coordinates":[-82.4240137956186,33.3792774484018]},"properties":{"OBJECTID":54,"GM_Region":"3","PropName":"MCDUFFIE PFA","Name":null,"Surface":null,"Management":"FM","Comments":null,"GlobalID":"acfdfac4-289b-4738-978f-3a1dc99dc7e7"}},{"type":"Feature","id":55,"geometry":{"type":"Point","coordinates":[-82.4227301038692,33.3794094503892]},"properties":{"OBJECTID":55,"GM_Region":"3","PropName":"MCDUFFIE PFA","Name":null,"Surface":null,"Management":"FM","Comments":null,"GlobalID":"190665aa-183b-4047-af43-e2889df2fcc7"}},{"type":"Feature","id":56,"geometry":{"type":"Point","coordinates":[-82.417835338272,33.3804232463688]},"properties":{"OBJECTID":56,"GM_Region":"3","PropName":"MCDUFFIE PFA","Name":null,"Surface":null,"Management":"FM","Comments":null,"GlobalID":"cef33640-8b96-4279-ad6c-def68dda1fe0"}},{"type":"Feature","id":57,"geometry":{"type":"Point","coordinates":[-82.4162353683748,33.3832240327202]},"properties":{"OBJECTID":57,"GM_Region":"3","PropName":"MCDUFFIE PFA","Name":null,"Surface":null,"Management":"FM","Comments":null,"GlobalID":"a286e591-226f-4271-a381-bebe59c9f4b9"}},{"type":"Feature","id":58,"geometry":{"type":"Point","coordinates":[-82.4122600352924,33.3852448574685]},"properties":{"OBJECTID":58,"GM_Region":"3","PropName":"MCDUFFIE PFA","Name":null,"Surface":null,"Management":"FM","Comments":null,"GlobalID":"4affce51-83b8-4bf7-869f-12484e5af9d6"}},{"type":"Feature","id":59,"geometry":{"type":"Point","coordinates":[-83.7769154185591,32.410827068193]},"properties":{"OBJECTID":59,"GM_Region":"3","PropName":"FLAT CREEK PFA","Name":null,"Surface":"Gravel","Management":"FM","Comments":null,"GlobalID":"91010435-41e2-432f-9659-0a9ee20fb2f7"}},{"type":"Feature","id":60,"geometry":{"type":"Point","coordinates":[-83.7709520209698,32.4104558773363]},"properties":{"OBJECTID":60,"GM_Region":"3","PropName":"FLAT CREEK PFA","Name":null,"Surface":"Gravel","Management":"FM","Comments":null,"GlobalID":"b80f35d9-7909-421b-9461-7a9b67f42470"}},{"type":"Feature","id":61,"geometry":{"type":"Point","coordinates":[-81.7913424770016,32.1312559609896]},"properties":{"OBJECTID":61,"GM_Region":"4","PropName":"EVANS COUNTY PFA","Name":null,"Surface":null,"Management":"FM","Comments":null,"GlobalID":"da349154-45c4-4869-a811-8e41c322fc64"}},{"type":"Feature","id":63,"geometry":{"type":"Point","coordinates":[-81.7935839622037,32.1282087244404]},"properties":{"OBJECTID":63,"GM_Region":"4","PropName":"EVANS COUNTY PFA","Name":null,"Surface":null,"Management":"FM","Comments":null,"GlobalID":"19a05a74-16f4-4257-b7d7-79e07de9b655"}},{"type":"Feature","id":64,"geometry":{"type":"Point","coordinates":[-81.8041938296936,32.1229392031832]},"properties":{"OBJECTID":64,"GM_Region":"4","PropName":"EVANS COUNTY PFA","Name":null,"Surface":null,"Management":"FM","Comments":null,"GlobalID":"bea34b63-76f0-42c1-ba2b-af76da39758a"}},{"type":"Feature","id":65,"geometry":{"type":"Point","coordinates":[-81.8021365002336,32.1256837305579]},"properties":{"OBJECTID":65,"GM_Region":"4","PropName":"EVANS COUNTY PFA","Name":null,"Surface":null,"Management":"FM","Comments":null,"GlobalID":"6fb1e848-c165-463f-8573-09159e1ed2d8"}},{"type":"Feature","id":66,"geometry":{"type":"Point","coordinates":[-83.1332037610001,32.1582561318367]},"properties":{"OBJECTID":66,"GM_Region":"4","PropName":"DODGE COUNTY PFA","Name":null,"Surface":null,"Management":"FM","Comments":null,"GlobalID":"ebb86301-59fd-45f3-9ade-5ed6457951a2"}},{"type":"Feature","id":67,"geometry":{"type":"Point","coordinates":[-83.1310237604908,32.161716132655]},"properties":{"OBJECTID":67,"GM_Region":"4","PropName":"DODGE COUNTY PFA","Name":null,"Surface":null,"Management":"FM","Comments":null,"GlobalID":"fb2e2d17-1cdd-4bdf-a189-520267bd7791"}},{"type":"Feature","id":68,"geometry":{"type":"Point","coordinates":[-82.7183076180189,32.5775094123656]},"properties":{"OBJECTID":68,"GM_Region":"4","PropName":"HUGH GILLIS PFA","Name":null,"Surface":null,"Management":"FM","Comments":null,"GlobalID":"373aa9d7-cbc4-4a1e-869d-4d01862d3151"}},{"type":"Feature","id":69,"geometry":{"type":"Point","coordinates":[-82.7187319202584,32.5711183246497]},"properties":{"OBJECTID":69,"GM_Region":"4","PropName":"HUGH GILLIS PFA","Name":null,"Surface":null,"Management":"FM","Comments":null,"GlobalID":"39e711c0-e792-489b-b610-770b1c06a8f0"}},{"type":"Feature","id":70,"geometry":{"type":"Point","coordinates":[-82.7175572599022,32.5701225549278]},"properties":{"OBJECTID":70,"GM_Region":"4","PropName":"HUGH GILLIS PFA","Name":null,"Surface":null,"Management":"FM","Comments":null,"GlobalID":"98bdd146-3b64-4421-a59d-638f6eef632d"}},{"type":"Feature","id":71,"geometry":{"type":"Point","coordinates":[-82.7193036594065,32.5685229072404]},"properties":{"OBJECTID":71,"GM_Region":"4","PropName":"HUGH GILLIS PFA","Name":null,"Surface":null,"Management":"FM","Comments":null,"GlobalID":"ee62cdf5-68b5-41e2-a4fe-1aa12eab9c8b"}},{"type":"Feature","id":72,"geometry":{"type":"Point","coordinates":[-83.3553888410677,31.4022947356164]},"properties":{"OBJECTID":72,"GM_Region":"6","PropName":"PARADISE PFA","Name":null,"Surface":"Dirt","Management":"FM","Comments":null,"GlobalID":"1e130282-72a4-4832-aa16-d90cbcaf84ef"}},{"type":"Feature","id":73,"geometry":{"type":"Point","coordinates":[-83.4897818169124,32.3836676522861]},"properties":{"OBJECTID":73,"GM_Region":"4","PropName":"OCMULGEE PFA","Name":null,"Surface":"Paved","Management":"FM","Comments":null,"GlobalID":"4eb1baff-2ea3-43cb-8227-4fc552c9c9c9"}},{"type":"Feature","id":74,"geometry":{"type":"Point","coordinates":[-83.488915699943,32.3837807161871]},"properties":{"OBJECTID":74,"GM_Region":"4","PropName":"OCMULGEE PFA","Name":null,"Surface":"Paved","Management":"FM","Comments":null,"GlobalID":"1b18a7cf-098e-4588-979d-5cceaef984a5"}},{"type":"Feature","id":75,"geometry":{"type":"Point","coordinates":[-83.4834191162304,32.383113756911]},"properties":{"OBJECTID":75,"GM_Region":"4","PropName":"OCMULGEE PFA","Name":null,"Surface":"Paved","Management":"FM","Comments":null,"GlobalID":"bfe81c7f-d057-4c07-92e3-f06fc77ce73c"}},{"type":"Feature","id":76,"geometry":{"type":"Point","coordinates":[-83.4836338198715,32.3839827911676]},"properties":{"OBJECTID":76,"GM_Region":"4","PropName":"OCMULGEE PFA","Name":null,"Surface":"Paved","Management":"FM","Comments":null,"GlobalID":"dbaeabd2-6f97-4af3-82c7-3158ebc9177a"}},{"type":"Feature","id":77,"geometry":{"type":"Point","coordinates":[-83.8200572843663,31.974810734834]},"properties":{"OBJECTID":77,"GM_Region":"5","PropName":"CORDELE FISH HATCHERY","Name":null,"Surface":null,"Management":"FM","Comments":null,"GlobalID":"70a97c08-870a-42f9-ad8e-824b3333bcf3"}},{"type":"Feature","id":79,"geometry":{"type":"Point","coordinates":[-85.379677284515,34.7128421134265]},"properties":{"OBJECTID":79,"GM_Region":"1","PropName":"CROCKFORD-PIGEON MOUNTAIN WMA","Name":"Pocket Parking Area","Surface":null,"Management":"GM","Comments":null,"GlobalID":"82b0d32d-da0e-45d4-bbd2-0b3ae9df1327"}},{"type":"Feature","id":80,"geometry":{"type":"Point","coordinates":[-85.3463563086905,34.6727977323288]},"properties":{"OBJECTID":80,"GM_Region":"1","PropName":"CROCKFORD-PIGEON MOUNTAIN WMA","Name":"Chamberlain Parking Area","Surface":null,"Management":"GM","Comments":null,"GlobalID":"5d296c45-ea9b-4e2c-b56d-42da0abec1af"}},{"type":"Feature","id":81,"geometry":{"type":"Point","coordinates":[-83.1733949080125,33.3455866635333]},"properties":{"OBJECTID":81,"GM_Region":"3","PropName":"OCONEE WMA","Name":null,"Surface":null,"Management":"GM","Comments":null,"GlobalID":"50635463-6218-4520-aa65-bc3635636165"}},{"type":"Feature","id":82,"geometry":{"type":"Point","coordinates":[-83.1623403907545,33.3386494500488]},"properties":{"OBJECTID":82,"GM_Region":"3","PropName":"OCONEE WMA","Name":null,"Surface":null,"Management":"GM","Comments":null,"GlobalID":"6d200ae1-c936-4d5e-b17b-970133ead04b"}},{"type":"Feature","id":83,"geometry":{"type":"Point","coordinates":[-83.1502322213968,33.3369813204076]},"properties":{"OBJECTID":83,"GM_Region":"3","PropName":"OCONEE WMA","Name":null,"Surface":null,"Management":"GM","Comments":null,"GlobalID":"b2be575b-a483-4c8b-a7a6-10d2186313fb"}},{"type":"Feature","id":84,"geometry":{"type":"Point","coordinates":[-83.7301224717841,32.4271043722784]},"properties":{"OBJECTID":84,"GM_Region":"3","PropName":"PERRY DOVE FIELD","Name":null,"Surface":null,"Management":"GM","Comments":null,"GlobalID":"1e21a3ba-2851-4444-9342-dff34075d08b"}},{"type":"Feature","id":85,"geometry":{"type":"Point","coordinates":[-83.7215461466254,32.4267639887367]},"properties":{"OBJECTID":85,"GM_Region":"3","PropName":"PERRY DOVE FIELD","Name":null,"Surface":null,"Management":"GM","Comments":null,"GlobalID":"2073747d-28d5-4155-993b-fe1a2e890161"}},{"type":"Feature","id":86,"geometry":{"type":"Point","coordinates":[-84.8368365977995,34.8454278049164]},"properties":{"OBJECTID":86,"GM_Region":"1","PropName":"CONASAUGA RIVER WMA","Name":null,"Surface":null,"Management":"GM","Comments":null,"GlobalID":"17b976f1-2f66-48d6-90cc-e528f08ef04b"}},{"type":"Feature","id":87,"geometry":{"type":"Point","coordinates":[-84.8366462406607,34.8512812806941]},"properties":{"OBJECTID":87,"GM_Region":"1","PropName":"CONASAUGA RIVER WMA","Name":null,"Surface":null,"Management":"GM","Comments":null,"GlobalID":"fa62328a-7d96-4515-86fd-49b7a3b2f6d9"}},{"type":"Feature","id":88,"geometry":{"type":"Point","coordinates":[-84.8532777549504,34.8276943969638]},"properties":{"OBJECTID":88,"GM_Region":"1","PropName":"CONASAUGA RIVER WMA","Name":null,"Surface":null,"Management":"GM","Comments":null,"GlobalID":"35e9a30d-1f06-4793-87ce-a4d4f35cb996"}},{"type":"Feature","id":89,"geometry":{"type":"Point","coordinates":[-85.3051645294065,34.3588430248738]},"properties":{"OBJECTID":89,"GM_Region":"1","PropName":"ROCKY MOUNTAIN RECREATION PFA","Name":null,"Surface":null,"Management":"FM","Comments":null,"GlobalID":"cbf425d8-3b5b-4a42-8d6a-ac1d9fdad454"}},{"type":"Feature","id":90,"geometry":{"type":"Point","coordinates":[-85.303793960802,34.366895122873]},"properties":{"OBJECTID":90,"GM_Region":"1","PropName":"ROCKY MOUNTAIN RECREATION PFA","Name":null,"Surface":null,"Management":"FM","Comments":null,"GlobalID":"14d4d70d-58c8-497b-8226-42fc068f69ef"}},{"type":"Feature","id":91,"geometry":{"type":"Point","coordinates":[-85.3063257073231,34.3610511652364]},"properties":{"OBJECTID":91,"GM_Region":"1","PropName":"ROCKY MOUNTAIN RECREATION PFA","Name":null,"Surface":null,"Management":"FM","Comments":null,"GlobalID":"af4a36ab-c3fa-4398-bd95-daf93cd7ff94"}},{"type":"Feature","id":92,"geometry":{"type":"Point","coordinates":[-85.3144634667659,34.3618792171728]},"properties":{"OBJECTID":92,"GM_Region":"1","PropName":"ROCKY MOUNTAIN RECREATION PFA","Name":null,"Surface":null,"Management":"FM","Comments":null,"GlobalID":"d4a39162-ad72-45a3-ac6c-be44019dc700"}},{"type":"Feature","id":93,"geometry":{"type":"Point","coordinates":[-85.2950113657565,34.351273957812]},"properties":{"OBJECTID":93,"GM_Region":"1","PropName":"ROCKY MOUNTAIN RECREATION PFA","Name":null,"Surface":null,"Management":"FM","Comments":null,"GlobalID":"fed01eb4-12cc-4600-a790-b83afe39210b"}},{"type":"Feature","id":94,"geometry":{"type":"Point","coordinates":[-83.0765070693398,34.4989126282682]},"properties":{"OBJECTID":94,"GM_Region":"2","PropName":"TUGALOO STATE PARK","Name":null,"Surface":null,"Management":"SP","Comments":null,"GlobalID":"204297c4-e2c9-4f9d-8afe-779b8eb57b0c"}},{"type":"Feature","id":95,"geometry":{"type":"Point","coordinates":[-83.0630631095819,34.4925178255141]},"properties":{"OBJECTID":95,"GM_Region":"2","PropName":"TUGALOO STATE PARK","Name":null,"Surface":null,"Management":"SP","Comments":null,"GlobalID":"c4a84b67-7baf-4e7a-85d2-63fc532db935"}},{"type":"Feature","id":96,"geometry":{"type":"Point","coordinates":[-83.0615699981776,34.4989780640382]},"properties":{"OBJECTID":96,"GM_Region":"2","PropName":"TUGALOO STATE PARK","Name":null,"Surface":null,"Management":"SP","Comments":null,"GlobalID":"cacb9eb4-ba8b-45f2-894c-d0f890c8ce21"}},{"type":"Feature","id":97,"geometry":{"type":"Point","coordinates":[-84.1464844518392,33.6320583317263]},"properties":{"OBJECTID":97,"GM_Region":"2","PropName":"PANOLA MOUNTAIN STATE PARK","Name":null,"Surface":null,"Management":"SP","Comments":null,"GlobalID":"c7c219d5-b6be-4cc2-b404-5505243b83bf"}},{"type":"Feature","id":98,"geometry":{"type":"Point","coordinates":[-84.1741016735421,33.624577304565]},"properties":{"OBJECTID":98,"GM_Region":"2","PropName":"PANOLA MOUNTAIN STATE PARK","Name":null,"Surface":null,"Management":"SP","Comments":null,"GlobalID":"01769e25-0e3f-4a4a-8a30-fa07a326ec74"}},{"type":"Feature","id":99,"geometry":{"type":"Point","coordinates":[-84.700340004589,34.1396398786889]},"properties":{"OBJECTID":99,"GM_Region":"1","PropName":"RED TOP MOUNTAIN STATE PARK","Name":null,"Surface":null,"Management":"SP","Comments":null,"GlobalID":"0e9fec03-ee08-4059-ac9f-369001b5c40d"}},{"type":"Feature","id":100,"geometry":{"type":"Point","coordinates":[-84.6987731292711,34.150886403665]},"properties":{"OBJECTID":100,"GM_Region":"1","PropName":"RED TOP MOUNTAIN STATE PARK","Name":null,"Surface":null,"Management":"SP","Comments":null,"GlobalID":"d44769b5-b655-4d73-83f2-bdddc36a96e6"}},{"type":"Feature","id":101,"geometry":{"type":"Point","coordinates":[-84.7065837123154,34.1476681816692]},"properties":{"OBJECTID":101,"GM_Region":"1","PropName":"RED TOP MOUNTAIN STATE PARK","Name":null,"Surface":null,"Management":"SP","Comments":null,"GlobalID":"fa184f2c-6c1a-480e-97b6-9eb63f2e169d"}},{"type":"Feature","id":102,"geometry":{"type":"Point","coordinates":[-84.7031275438727,34.1543485195264]},"properties":{"OBJECTID":102,"GM_Region":"1","PropName":"RED TOP MOUNTAIN STATE PARK","Name":null,"Surface":null,"Management":"SP","Comments":null,"GlobalID":"34ee7248-705c-4d11-9e89-07dcdb75f1da"}},{"type":"Feature","id":103,"geometry":{"type":"Point","coordinates":[-84.7170414478134,34.1648467030574]},"properties":{"OBJECTID":103,"GM_Region":"1","PropName":"RED TOP MOUNTAIN STATE PARK","Name":null,"Surface":null,"Management":"SP","Comments":null,"GlobalID":"350edc43-6568-4c55-827b-638652450d7e"}},{"type":"Feature","id":104,"geometry":{"type":"Point","coordinates":[-84.714921346021,34.1603138298927]},"properties":{"OBJECTID":104,"GM_Region":"1","PropName":"RED TOP MOUNTAIN STATE PARK","Name":null,"Surface":null,"Management":"SP","Comments":null,"GlobalID":"1cc40990-d5de-4661-a12e-c917fc1cfb53"}},{"type":"Feature","id":105,"geometry":{"type":"Point","coordinates":[-84.7174007448359,34.1453698596726]},"properties":{"OBJECTID":105,"GM_Region":"1","PropName":"RED TOP MOUNTAIN STATE PARK","Name":null,"Surface":null,"Management":"SP","Comments":null,"GlobalID":"875b4ca6-8ab6-4e86-8041-a8864eb6444e"}},{"type":"Feature","id":106,"geometry":{"type":"Point","coordinates":[-84.7168629863193,34.1467880172389]},"properties":{"OBJECTID":106,"GM_Region":"1","PropName":"RED TOP MOUNTAIN STATE PARK","Name":null,"Surface":null,"Management":"SP","Comments":null,"GlobalID":"042378f8-87ae-40dc-9dda-19407bc6b061"}},{"type":"Feature","id":107,"geometry":{"type":"Point","coordinates":[-82.3703327657083,33.6478551665387]},"properties":{"OBJECTID":107,"GM_Region":"3","PropName":"MISTLETOE STATE PARK","Name":null,"Surface":null,"Management":"SP","Comments":null,"GlobalID":"64c9c123-87b5-4cb2-a2a3-2384094ca8e5"}},{"type":"Feature","id":108,"geometry":{"type":"Point","coordinates":[-82.3732666409956,33.6499252981655]},"properties":{"OBJECTID":108,"GM_Region":"3","PropName":"MISTLETOE STATE PARK","Name":null,"Surface":null,"Management":"SP","Comments":null,"GlobalID":"a7f583f5-beea-44a1-af3e-00647a86b7cb"}},{"type":"Feature","id":109,"geometry":{"type":"Point","coordinates":[-82.3734022704099,33.6544010646038]},"properties":{"OBJECTID":109,"GM_Region":"3","PropName":"MISTLETOE STATE PARK","Name":null,"Surface":null,"Management":"SP","Comments":null,"GlobalID":"ec5f022d-8d78-4b3e-80bc-f57b3ec0e41e"}},{"type":"Feature","id":110,"geometry":{"type":"Point","coordinates":[-82.7437874721655,34.1617750954896]},"properties":{"OBJECTID":110,"GM_Region":"2","PropName":"RICHARD B. RUSSELL STATE PARK","Name":null,"Surface":null,"Management":"SP","Comments":null,"GlobalID":"86cad277-3d31-4c8a-b648-944bd830a82f"}},{"type":"Feature","id":111,"geometry":{"type":"Point","coordinates":[-82.7469224131767,34.1633633854845]},"properties":{"OBJECTID":111,"GM_Region":"2","PropName":"RICHARD B. RUSSELL STATE PARK","Name":null,"Surface":null,"Management":"SP","Comments":null,"GlobalID":"002be88c-ee27-48f5-8ada-8a857e44df0d"}},{"type":"Feature","id":112,"geometry":{"type":"Point","coordinates":[-82.7314023749723,34.1558085952259]},"properties":{"OBJECTID":112,"GM_Region":"2","PropName":"RICHARD B. RUSSELL STATE PARK","Name":null,"Surface":null,"Management":"SP","Comments":null,"GlobalID":"41d70694-7b36-483a-888c-dbee6012d80a"}},{"type":"Feature","id":113,"geometry":{"type":"Point","coordinates":[-82.7329966127894,34.1518586898566]},"properties":{"OBJECTID":113,"GM_Region":"2","PropName":"RICHARD B. RUSSELL STATE PARK","Name":null,"Surface":null,"Management":"SP","Comments":null,"GlobalID":"63aaaf5f-cca2-4a03-bfac-ef9fa020a46a"}},{"type":"Feature","id":114,"geometry":{"type":"Point","coordinates":[-82.752775890334,34.1826727154724]},"properties":{"OBJECTID":114,"GM_Region":"2","PropName":"RICHARD B. RUSSELL STATE PARK","Name":null,"Surface":null,"Management":"SP","Comments":null,"GlobalID":"d5b7b701-db9a-4e28-b166-94f61927ff9f"}},{"type":"Feature","id":115,"geometry":{"type":"Point","coordinates":[-85.0122263578329,33.4292957323391]},"properties":{"OBJECTID":115,"GM_Region":"1","PropName":"CHATTAHOOCHEE BEND STATE PARK","Name":null,"Surface":null,"Management":"SP","Comments":null,"GlobalID":"835e6445-fcad-49ea-b6ba-e46ff689e082"}},{"type":"Feature","id":116,"geometry":{"type":"Point","coordinates":[-84.7122689337058,32.8531837324742]},"properties":{"OBJECTID":116,"GM_Region":"5","PropName":"F. D. ROOSEVELT STATE PARK","Name":null,"Surface":null,"Management":"SP","Comments":null,"GlobalID":"654bed07-9523-4d4b-9f0a-b8f3604e371e"}},{"type":"Feature","id":117,"geometry":{"type":"Point","coordinates":[-84.719490600894,32.8630822919778]},"properties":{"OBJECTID":117,"GM_Region":"5","PropName":"F. D. ROOSEVELT STATE PARK","Name":null,"Surface":null,"Management":"SP","Comments":null,"GlobalID":"b1f87dac-694d-461e-902b-e8aaae48fb14"}},{"type":"Feature","id":118,"geometry":{"type":"Point","coordinates":[-84.7656283621749,32.8500309440522]},"properties":{"OBJECTID":118,"GM_Region":"5","PropName":"F. D. ROOSEVELT STATE PARK","Name":null,"Surface":null,"Management":"SP","Comments":null,"GlobalID":"df1ce734-c61e-465d-a4f5-5c381e0a903c"}},{"type":"Feature","id":119,"geometry":{"type":"Point","coordinates":[-84.7798813368304,32.8457717077517]},"properties":{"OBJECTID":119,"GM_Region":"5","PropName":"F. D. ROOSEVELT STATE PARK","Name":null,"Surface":null,"Management":"SP","Comments":null,"GlobalID":"7d924e9d-1a6a-469b-98f3-4b25a2e94a68"}},{"type":"Feature","id":120,"geometry":{"type":"Point","coordinates":[-84.79690638628,32.847080410564]},"properties":{"OBJECTID":120,"GM_Region":"5","PropName":"F. D. ROOSEVELT STATE PARK","Name":null,"Surface":null,"Management":"SP","Comments":null,"GlobalID":"4c00c380-953f-46bf-9eb4-39c4caefbb84"}},{"type":"Feature","id":121,"geometry":{"type":"Point","coordinates":[-84.8021293045846,32.8415243673852]},"properties":{"OBJECTID":121,"GM_Region":"5","PropName":"F. D. ROOSEVELT STATE PARK","Name":null,"Surface":null,"Management":"SP","Comments":null,"GlobalID":"8b6accfc-2ff7-422f-b947-1f9d094ee0b6"}},{"type":"Feature","id":122,"geometry":{"type":"Point","coordinates":[-84.8119743272393,32.8480202972755]},"properties":{"OBJECTID":122,"GM_Region":"5","PropName":"F. D. ROOSEVELT STATE PARK","Name":null,"Surface":null,"Management":"SP","Comments":null,"GlobalID":"641fa94e-2c0e-4c34-adc2-65f9bf027f11"}},{"type":"Feature","id":123,"geometry":{"type":"Point","coordinates":[-84.745190273008,32.8399265611377]},"properties":{"OBJECTID":123,"GM_Region":"5","PropName":"F. D. ROOSEVELT STATE PARK","Name":null,"Surface":null,"Management":"SP","Comments":null,"GlobalID":"f26e0e45-0be5-4d7e-930a-3cca48f8a110"}},{"type":"Feature","id":124,"geometry":{"type":"Point","coordinates":[-83.715028263955,33.4533413447244]},"properties":{"OBJECTID":124,"GM_Region":"3","PropName":"CLYBEL WMA","Name":null,"Surface":null,"Management":"GM","Comments":null,"GlobalID":"ae59bf47-ea20-4f41-b42c-822afe1b6371"}},{"type":"Feature","id":125,"geometry":{"type":"Point","coordinates":[-83.7376382535438,33.4723556512393]},"properties":{"OBJECTID":125,"GM_Region":"3","PropName":"CLYBEL WMA","Name":null,"Surface":null,"Management":"GM","Comments":null,"GlobalID":"3a4a9d7f-acd5-40f0-89e0-de440197baff"}},{"type":"Feature","id":126,"geometry":{"type":"Point","coordinates":[-83.7294350576522,33.4521540239462]},"properties":{"OBJECTID":126,"GM_Region":"3","PropName":"CLYBEL WMA","Name":null,"Surface":null,"Management":"GM","Comments":null,"GlobalID":"2188c4a7-e506-4f8b-b9ef-62b8b51c22d6"}},{"type":"Feature","id":127,"geometry":{"type":"Point","coordinates":[-83.7496485837118,33.4379962263419]},"properties":{"OBJECTID":127,"GM_Region":"3","PropName":"CLYBEL WMA","Name":null,"Surface":null,"Management":"GM","Comments":null,"GlobalID":"98628831-d21c-4f36-8b66-52f52e782200"}},{"type":"Feature","id":128,"geometry":{"type":"Point","coordinates":[-83.7472217809806,33.4678056246965]},"properties":{"OBJECTID":128,"GM_Region":"3","PropName":"CLYBEL WMA","Name":null,"Surface":null,"Management":"GM","Comments":null,"GlobalID":"535f8b1e-7a1e-40ce-bac5-bd46ab7814b6"}},{"type":"Feature","id":129,"geometry":{"type":"Point","coordinates":[-83.6732425968655,34.4954471255227]},"properties":{"OBJECTID":129,"GM_Region":"2","PropName":"MOSSY CREEK STATE PARK","Name":null,"Surface":null,"Management":"SP","Comments":null,"GlobalID":"47039b1c-1e24-4593-9e4c-bb77882a2b2a"}},{"type":"Feature","id":130,"geometry":{"type":"Point","coordinates":[-83.678045302801,34.4939471130366]},"properties":{"OBJECTID":130,"GM_Region":"2","PropName":"MOSSY CREEK STATE PARK","Name":null,"Surface":null,"Management":"SP","Comments":null,"GlobalID":"0b2fe99b-1087-4683-b81f-bc8b34aef26c"}},{"type":"Feature","id":131,"geometry":{"type":"Point","coordinates":[-83.7303499998128,33.9684947313948]},"properties":{"OBJECTID":131,"GM_Region":"2","PropName":"FORT YARGO STATE PARK","Name":null,"Surface":null,"Management":"SP","Comments":null,"GlobalID":"ceab7820-b874-470a-8bb9-6b731f0a6b12"}},{"type":"Feature","id":132,"geometry":{"type":"Point","coordinates":[-83.7316706020307,33.9741483328131]},"properties":{"OBJECTID":132,"GM_Region":"2","PropName":"FORT YARGO STATE PARK","Name":null,"Surface":null,"Management":"SP","Comments":null,"GlobalID":"3d2dfcf2-07b2-4bd2-ba0d-1b640c914c4a"}},{"type":"Feature","id":133,"geometry":{"type":"Point","coordinates":[-83.7351612722744,33.9765896602171]},"properties":{"OBJECTID":133,"GM_Region":"2","PropName":"FORT YARGO STATE PARK","Name":null,"Surface":null,"Management":"SP","Comments":null,"GlobalID":"89c63cc2-c61d-4e4d-8f99-5ef5afb5bbc2"}},{"type":"Feature","id":134,"geometry":{"type":"Point","coordinates":[-83.7408229974666,33.9664645585044]},"properties":{"OBJECTID":134,"GM_Region":"2","PropName":"FORT YARGO STATE PARK","Name":null,"Surface":null,"Management":"SP","Comments":null,"GlobalID":"146a8b7e-486d-45f4-8714-fa75d58ccb7d"}},{"type":"Feature","id":135,"geometry":{"type":"Point","coordinates":[-83.3898395940772,34.7408561972568]},"properties":{"OBJECTID":135,"GM_Region":"2","PropName":"TALLULAH GORGE STATE PARK","Name":null,"Surface":null,"Management":"SP","Comments":null,"GlobalID":"2853aed8-7356-4d90-b51d-709510934f4a"}},{"type":"Feature","id":136,"geometry":{"type":"Point","coordinates":[-82.1598167503234,31.9698218076941]},"properties":{"OBJECTID":136,"GM_Region":"4","PropName":"ROGERS STATE PRISON FARM DOVE FIELDS","Name":null,"Surface":"Dirt","Management":"OTH","Comments":null,"GlobalID":"78cdd7c4-7dfd-424f-949e-e65b548f5090"}},{"type":"Feature","id":138,"geometry":{"type":"Point","coordinates":[-85.4698851146078,34.6549893035705]},"properties":{"OBJECTID":138,"GM_Region":"1","PropName":"ZAHND WMA","Name":"Hwy 157 Parking Area","Surface":"Gravel","Management":"GM","Comments":null,"GlobalID":"09b359da-682a-4abd-a13e-ed2a57b9e420"}},{"type":"Feature","id":140,"geometry":{"type":"Point","coordinates":[-83.6671585141772,34.5604984931502]},"properties":{"OBJECTID":140,"GM_Region":"2","PropName":"LONDON FARMS VPA","Name":null,"Surface":null,"Management":"OTH","Comments":null,"GlobalID":"22a8f5ac-f480-440b-ba44-591eed016581"}},{"type":"Feature","id":141,"geometry":{"type":"Point","coordinates":[-83.662459076381,34.5574468333841]},"properties":{"OBJECTID":141,"GM_Region":"2","PropName":"LONDON FARMS VPA","Name":null,"Surface":null,"Management":"OTH","Comments":null,"GlobalID":"d2335ae5-db06-4a08-bd9e-993a277197b0"}},{"type":"Feature","id":142,"geometry":{"type":"Point","coordinates":[-81.9413814430531,33.2221683893665]},"properties":{"OBJECTID":142,"GM_Region":"3","PropName":"COLLINS RD VPA","Name":null,"Surface":null,"Management":"OTH","Comments":null,"GlobalID":"1cf1b160-f915-4e56-9434-69f1668a462a"}},{"type":"Feature","id":143,"geometry":{"type":"Point","coordinates":[-81.9410721124227,33.2192654460752]},"properties":{"OBJECTID":143,"GM_Region":"3","PropName":"COLLINS RD VPA","Name":null,"Surface":null,"Management":"OTH","Comments":null,"GlobalID":"b29fa245-e8dc-4a5a-8ea6-e823f4aef734"}},{"type":"Feature","id":144,"geometry":{"type":"Point","coordinates":[-81.9382762454243,33.2167194222858]},"properties":{"OBJECTID":144,"GM_Region":"3","PropName":"COLLINS RD VPA","Name":null,"Surface":null,"Management":"OTH","Comments":null,"GlobalID":"f824af40-0cad-4595-b053-77bb09157d33"}},{"type":"Feature","id":145,"geometry":{"type":"Point","coordinates":[-81.9310426808622,33.2174451579806]},"properties":{"OBJECTID":145,"GM_Region":"3","PropName":"COLLINS RD VPA","Name":null,"Surface":null,"Management":"OTH","Comments":null,"GlobalID":"b3858711-a33b-4510-a91e-edbac83a7faa"}},{"type":"Feature","id":146,"geometry":{"type":"Point","coordinates":[-81.9373839468763,33.2143518587812]},"properties":{"OBJECTID":146,"GM_Region":"3","PropName":"COLLINS RD VPA","Name":null,"Surface":null,"Management":"OTH","Comments":null,"GlobalID":"4b7a2aea-5c15-4ecc-9769-4208d2769b0f"}},{"type":"Feature","id":147,"geometry":{"type":"Point","coordinates":[-81.9361585243841,33.2120556784703]},"properties":{"OBJECTID":147,"GM_Region":"3","PropName":"COLLINS RD VPA","Name":null,"Surface":null,"Management":"OTH","Comments":null,"GlobalID":"0d26e693-bc12-4694-8514-da849c3f15cb"}},{"type":"Feature","id":148,"geometry":{"type":"Point","coordinates":[-81.9303407400747,33.2125791592282]},"properties":{"OBJECTID":148,"GM_Region":"3","PropName":"COLLINS RD VPA","Name":null,"Surface":null,"Management":"OTH","Comments":null,"GlobalID":"12b1758b-91d3-4542-bf42-9fdde880c3d7"}},{"type":"Feature","id":149,"geometry":{"type":"Point","coordinates":[-81.9282706088176,33.2126743386443]},"properties":{"OBJECTID":149,"GM_Region":"3","PropName":"COLLINS RD VPA","Name":null,"Surface":null,"Management":"OTH","Comments":null,"GlobalID":"a17eda30-053d-4b9a-8b50-f684b70e94c8"}},{"type":"Feature","id":155,"geometry":{"type":"Point","coordinates":[-83.879243285674,31.2969767799726]},"properties":{"OBJECTID":155,"GM_Region":"5","PropName":"DOERUN PITCHER PLANT BOG WMA","Name":null,"Surface":"Dirt","Management":"GM","Comments":null,"GlobalID":"5f0aec07-0999-49ad-ac50-44b26fdd0c03"}},{"type":"Feature","id":156,"geometry":{"type":"Point","coordinates":[-85.0445575972155,34.5491632830787]},"properties":{"OBJECTID":156,"GM_Region":"1","PropName":"JOHNS MOUNTAIN WMA","Name":"Tweedale Farm Parking Area","Surface":null,"Management":"GM","Comments":null,"GlobalID":"fa42742f-b1e2-4394-a1b6-43a099e20486"}},{"type":"Feature","id":157,"geometry":{"type":"Point","coordinates":[-85.08829856345,34.6135549988972]},"properties":{"OBJECTID":157,"GM_Region":"1","PropName":"JOHNS MOUNTAIN WMA","Name":"Keown Falls Parking","Surface":null,"Management":"GM","Comments":null,"GlobalID":"06e52d87-61c4-4c47-865c-5d4cc6e19ea3"}},{"type":"Feature","id":158,"geometry":{"type":"Point","coordinates":[-85.0595575193899,34.6644191564337]},"properties":{"OBJECTID":158,"GM_Region":"1","PropName":"JOHNS MOUNTAIN WMA","Name":"Pinhoti Trail Parking","Surface":null,"Management":"GM","Comments":null,"GlobalID":"60157e7c-7077-4052-86e7-61cf8a580f85"}},{"type":"Feature","id":159,"geometry":{"type":"Point","coordinates":[-82.6356465442804,31.7057893053887]},"properties":{"OBJECTID":159,"GM_Region":"4","PropName":"BULLARD CREEK WMA – BELL TELEPHONE TRACT","Name":null,"Surface":null,"Management":"GM","Comments":null,"GlobalID":"6c21d530-9117-4bc4-ab26-7615c6095526"}},{"type":"Feature","id":160,"geometry":{"type":"Point","coordinates":[-82.630184444486,31.7123772789075]},"properties":{"OBJECTID":160,"GM_Region":"4","PropName":"BULLARD CREEK WMA – BELL TELEPHONE TRACT","Name":null,"Surface":null,"Management":"GM","Comments":null,"GlobalID":"40a12e88-7c8b-4d7d-a811-7208788b4d22"}},{"type":"Feature","id":161,"geometry":{"type":"Point","coordinates":[-83.3005539446081,33.5499045613454]},"properties":{"OBJECTID":161,"GM_Region":"2","PropName":"REDLANDS WMA","Name":null,"Surface":"Paved","Management":"GM","Comments":null,"GlobalID":"08e82a5a-e225-4a3a-b34d-f8965b40b3cf"}},{"type":"Feature","id":162,"geometry":{"type":"Point","coordinates":[-83.2725783063815,33.5680104480273]},"properties":{"OBJECTID":162,"GM_Region":"2","PropName":"REDLANDS WMA","Name":null,"Surface":"Paved","Management":"GM","Comments":null,"GlobalID":"59788166-91e9-4797-a13f-41bbde17548c"}},{"type":"Feature","id":163,"geometry":{"type":"Point","coordinates":[-85.3897768962663,34.6589812411846]},"properties":{"OBJECTID":163,"GM_Region":"1","PropName":"CROCKFORD-PIGEON MOUNTAIN WMA","Name":"Rocktown Parking Area","Surface":"Gravel","Management":"GM","Comments":null,"GlobalID":"6049e328-66a7-438f-9fed-c29a7acb6420"}},{"type":"Feature","id":164,"geometry":{"type":"Point","coordinates":[-85.3478976378737,34.7646621878472]},"properties":{"OBJECTID":164,"GM_Region":"1","PropName":"CROCKFORD-PIGEON MOUNTAIN WMA","Name":"Deerfield","Surface":"Paved","Management":"GM","Comments":null,"GlobalID":"107bcbc3-d757-4d4e-a322-c0bda7aa08fa"}},{"type":"Feature","id":165,"geometry":{"type":"Point","coordinates":[-85.3069574023206,34.7600633293874]},"properties":{"OBJECTID":165,"GM_Region":"1","PropName":"CROCKFORD-PIGEON MOUNTAIN WMA","Name":"Hwy 136 Parking Area","Surface":"Gravel","Management":"GM","Comments":null,"GlobalID":"f83a8375-1d51-4a5f-a488-36a291c990c7"}},{"type":"Feature","id":166,"geometry":{"type":"Point","coordinates":[-85.3255685398999,34.751776330763]},"properties":{"OBJECTID":166,"GM_Region":"1","PropName":"CROCKFORD-PIGEON MOUNTAIN WMA","Name":"Valley Head Church","Surface":"Gravel","Management":"GM","Comments":null,"GlobalID":"44c89dba-17b9-4834-862b-d7dd5b09bba9"}},{"type":"Feature","id":167,"geometry":{"type":"Point","coordinates":[-85.3709697578418,34.6669706948313]},"properties":{"OBJECTID":167,"GM_Region":"1","PropName":"CROCKFORD-PIGEON MOUNTAIN WMA","Name":"Lost Wall","Surface":null,"Management":"GM","Comments":null,"GlobalID":"abc2cda7-3144-4537-aed5-674c466e905e"}},{"type":"Feature","id":168,"geometry":{"type":"Point","coordinates":[-83.7286091836839,33.4116240394523]},"properties":{"OBJECTID":168,"GM_Region":"3","PropName":"CLYBEL WMA","Name":null,"Surface":"Gravel","Management":"GM","Comments":null,"GlobalID":"1aa69c7e-0dc7-4aa7-834d-365bcfd72923"}},{"type":"Feature","id":169,"geometry":{"type":"Point","coordinates":[-82.9589535860381,32.7832105699355]},"properties":{"OBJECTID":169,"GM_Region":"3","PropName":"BALLS FERRY STATE PARK","Name":null,"Surface":null,"Management":"SP","Comments":null,"GlobalID":"dc2d2f58-68d4-4d5b-b672-161773a6ebe5"}},{"type":"Feature","id":170,"geometry":{"type":"Point","coordinates":[-82.9603350202543,32.7852549999294]},"properties":{"OBJECTID":170,"GM_Region":"3","PropName":"BALLS FERRY STATE PARK","Name":null,"Surface":null,"Management":"SP","Comments":null,"GlobalID":"0b02bf55-d0dd-4dee-9bc2-4cbad9682f43"}},{"type":"Feature","id":171,"geometry":{"type":"Point","coordinates":[-84.2079775030086,34.4454815842937]},"properties":{"OBJECTID":171,"GM_Region":"2","PropName":"DAWSON FOREST WMA","Name":null,"Surface":"Gravel","Management":"GM","Comments":null,"GlobalID":"6a506055-f279-4833-9d25-f8151c2a4591"}},{"type":"Feature","id":172,"geometry":{"type":"Point","coordinates":[-85.3281859418248,34.3301261131583]},"properties":{"OBJECTID":172,"GM_Region":"1","PropName":"ROCKY MOUNTAIN RECREATION PFA","Name":null,"Surface":null,"Management":"FM","Comments":null,"GlobalID":"a019e339-ab4c-4601-bebd-ffb05c878f4a"}},{"type":"Feature","id":173,"geometry":{"type":"Point","coordinates":[-84.552492280596,33.112362297736]},"properties":{"OBJECTID":173,"GM_Region":"1","PropName":"JOE KURZ WMA","Name":null,"Surface":"Dirt","Management":"GM","Comments":null,"GlobalID":"ab53ddb2-c65a-4b22-b05b-1b12755229da"}},{"type":"Feature","id":174,"geometry":{"type":"Point","coordinates":[-84.5524141293391,33.1183442564114]},"properties":{"OBJECTID":174,"GM_Region":"1","PropName":"JOE KURZ WMA","Name":null,"Surface":"Dirt","Management":"GM","Comments":null,"GlobalID":"9250d489-fa77-418a-aba3-8ac46a0396e9"}},{"type":"Feature","id":175,"geometry":{"type":"Point","coordinates":[-84.5418178909584,33.114993869983]},"properties":{"OBJECTID":175,"GM_Region":"1","PropName":"JOE KURZ WMA","Name":null,"Surface":"Dirt","Management":"GM","Comments":null,"GlobalID":"39ecbe69-768a-433c-8f28-0f827a794317"}},{"type":"Feature","id":176,"geometry":{"type":"Point","coordinates":[-84.5409817799335,33.1110897160053]},"properties":{"OBJECTID":176,"GM_Region":"1","PropName":"JOE KURZ WMA","Name":null,"Surface":"Dirt","Management":"GM","Comments":null,"GlobalID":"473d3a29-da5a-48c9-a24e-5ef768135eed"}},{"type":"Feature","id":177,"geometry":{"type":"Point","coordinates":[-84.5351157121236,33.1091364473757]},"properties":{"OBJECTID":177,"GM_Region":"1","PropName":"JOE KURZ WMA","Name":null,"Surface":"Dirt","Management":"GM","Comments":null,"GlobalID":"5f32cbf0-9d5b-40f1-bc27-c26bf2708a18"}},{"type":"Feature","id":178,"geometry":{"type":"Point","coordinates":[-84.5266043475824,33.1111628882349]},"properties":{"OBJECTID":178,"GM_Region":"1","PropName":"JOE KURZ WMA","Name":null,"Surface":"Dirt","Management":"GM","Comments":null,"GlobalID":"0b2460ed-46dc-4452-9250-403bb49d01f9"}},{"type":"Feature","id":179,"geometry":{"type":"Point","coordinates":[-84.5273144568829,33.1384437168642]},"properties":{"OBJECTID":179,"GM_Region":"1","PropName":"JOE KURZ WMA","Name":null,"Surface":"Dirt","Management":"GM","Comments":null,"GlobalID":"30833010-fb1f-45ce-92ff-f7b480e2cb19"}},{"type":"Feature","id":180,"geometry":{"type":"Point","coordinates":[-84.5230376273933,33.1276502090438]},"properties":{"OBJECTID":180,"GM_Region":"1","PropName":"JOE KURZ WMA","Name":null,"Surface":"Gravel","Management":"GM","Comments":null,"GlobalID":"5236c310-c5fb-48bf-a9d5-1d935fc4652c"}},{"type":"Feature","id":181,"geometry":{"type":"Point","coordinates":[-84.5191213733065,33.1220776596985]},"properties":{"OBJECTID":181,"GM_Region":"1","PropName":"JOE KURZ WMA","Name":null,"Surface":"Gravel","Management":"GM","Comments":null,"GlobalID":"0249051b-f769-4a2d-abbc-e0c8fe7a90ff"}},{"type":"Feature","id":182,"geometry":{"type":"Point","coordinates":[-84.2113974579591,34.4260982817821]},"properties":{"OBJECTID":182,"GM_Region":"2","PropName":"DAWSON FOREST WMA","Name":null,"Surface":"Gravel","Management":"GM","Comments":null,"GlobalID":"8c0aa559-c031-4aa2-bdb0-1738a66fa1a3"}},{"type":"Feature","id":183,"geometry":{"type":"Point","coordinates":[-84.218342018599,34.4425997251125]},"properties":{"OBJECTID":183,"GM_Region":"2","PropName":"DAWSON FOREST WMA","Name":null,"Surface":"Gravel","Management":"GM","Comments":null,"GlobalID":"02ad3af6-d636-417c-98a1-8b3411660c00"}},{"type":"Feature","id":184,"geometry":{"type":"Point","coordinates":[-84.2085057656107,34.4444265493895]},"properties":{"OBJECTID":184,"GM_Region":"2","PropName":"DAWSON FOREST WMA","Name":"Steele Bridge","Surface":"Gravel","Management":"GM","Comments":null,"GlobalID":"75ace8d7-1c2f-4b5c-b10d-6154ab5a628f"}},{"type":"Feature","id":185,"geometry":{"type":"Point","coordinates":[-84.5105188981974,32.8903733431612]},"properties":{"OBJECTID":185,"GM_Region":"1","PropName":"SPREWELL BLUFF WMA","Name":null,"Surface":"Gravel","Management":"GM","Comments":null,"GlobalID":"6f622fdc-3998-42a9-8896-7e7cab4f8daa"}},{"type":"Feature","id":186,"geometry":{"type":"Point","coordinates":[-83.2898230600371,33.6462426288431]},"properties":{"OBJECTID":186,"GM_Region":"2","PropName":"REDLANDS WMA","Name":null,"Surface":"Gravel","Management":"GM","Comments":null,"GlobalID":"ad30174a-bff0-4814-b2aa-6e7a2f9cd726"}},{"type":"Feature","id":187,"geometry":{"type":"Point","coordinates":[-83.290646318093,33.6455439247675]},"properties":{"OBJECTID":187,"GM_Region":"2","PropName":"REDLANDS WMA","Name":null,"Surface":"Gravel","Management":"GM","Comments":null,"GlobalID":"9f7c80c2-06da-488c-b31b-7eb94d04eb12"}},{"type":"Feature","id":188,"geometry":{"type":"Point","coordinates":[-84.5257497574,32.9039033780093]},"properties":{"OBJECTID":188,"GM_Region":"1","PropName":"SPREWELL BLUFF WMA","Name":null,"Surface":"Gravel","Management":"GM","Comments":null,"GlobalID":"28611c05-486e-4e79-b899-4aa53b21c94f"}},{"type":"Feature","id":189,"geometry":{"type":"Point","coordinates":[-82.4251112417982,32.6047010888672]},"properties":{"OBJECTID":189,"GM_Region":"4","PropName":"OHOOPEE DUNES WMA","Name":null,"Surface":"Gravel","Management":"GM","Comments":null,"GlobalID":"29a3563f-7a5e-4284-9b24-490572e35788"}},{"type":"Feature","id":190,"geometry":{"type":"Point","coordinates":[-84.0289200016604,32.3371255148046]},"properties":{"OBJECTID":190,"GM_Region":"5","PropName":"MONTEZUMA BLUFFS WMA","Name":null,"Surface":"Gravel","Management":"GM","Comments":null,"GlobalID":"f385f202-8c1d-4690-b9ae-aa163d08bf0b"}},{"type":"Feature","id":191,"geometry":{"type":"Point","coordinates":[-85.0826040538,32.7772440127224]},"properties":{"OBJECTID":191,"GM_Region":"5","PropName":"BLANTON CREEK WMA","Name":null,"Surface":"Dirt","Management":"SP","Comments":null,"GlobalID":"43d51106-bf9e-4a7c-9c66-58b4386cc895"}},{"type":"Feature","id":192,"geometry":{"type":"Point","coordinates":[-82.8349101852729,32.4724917718148]},"properties":{"OBJECTID":192,"GM_Region":"4","PropName":"RIVER BEND WMA","Name":null,"Surface":null,"Management":"GM","Comments":null,"GlobalID":"35bc7938-b366-49bb-8bff-628d2b4a4b81"}},{"type":"Feature","id":193,"geometry":{"type":"Point","coordinates":[-82.8135045806001,31.832492672601]},"properties":{"OBJECTID":193,"GM_Region":"4","PropName":"HORSE CREEK WMA","Name":"Montgomery Lake parking","Surface":null,"Management":"GM","Comments":null,"GlobalID":"dcf27e5a-e5eb-4c25-88f5-10a67354c172"}},{"type":"Feature","id":194,"geometry":{"type":"Point","coordinates":[-82.9578189834722,32.7082771258775]},"properties":{"OBJECTID":194,"GM_Region":"4","PropName":"BEAVERDAM WMA","Name":null,"Surface":"Gravel","Management":"GM","Comments":null,"GlobalID":"557eec06-965b-40cd-a6c7-e54d185e3bb9"}},{"type":"Feature","id":195,"geometry":{"type":"Point","coordinates":[-82.9724261107895,32.6803649430409]},"properties":{"OBJECTID":195,"GM_Region":"4","PropName":"BEAVERDAM WMA","Name":null,"Surface":"Gravel","Management":"GM","Comments":null,"GlobalID":"bf654b83-04c3-490b-adfa-80e6ef6a93f2"}},{"type":"Feature","id":196,"geometry":{"type":"Point","coordinates":[-81.5597711655176,32.4712461699667]},"properties":{"OBJECTID":196,"GM_Region":"4","PropName":"OLIVER BRIDGE WMA","Name":null,"Surface":null,"Management":"GM","Comments":null,"GlobalID":"87d814fb-2c35-4d97-bcac-77026dc75a51"}},{"type":"Feature","id":197,"geometry":{"type":"Point","coordinates":[-81.5708691074433,32.4869903405849]},"properties":{"OBJECTID":197,"GM_Region":"4","PropName":"OLIVER BRIDGE WMA","Name":null,"Surface":null,"Management":"GM","Comments":null,"GlobalID":"04382e13-dff2-4e25-881c-6f8b11a57606"}},{"type":"Feature","id":198,"geometry":{"type":"Point","coordinates":[-81.4486129733956,31.335856727913]},"properties":{"OBJECTID":198,"GM_Region":"6","PropName":"ALTAMAHA WMA","Name":null,"Surface":null,"Management":"GM","Comments":null,"GlobalID":"199c9e60-365d-46b8-a932-ddb8665e7fde"}},{"type":"Feature","id":199,"geometry":{"type":"Point","coordinates":[-83.5010795245683,33.3899271480049]},"properties":{"OBJECTID":199,"GM_Region":"3","PropName":"B. F. GRANT WMA","Name":null,"Surface":"Dirt","Management":"GM","Comments":null,"GlobalID":"cae935d0-25c9-4f83-8e3d-7fc64d521ada"}},{"type":"Feature","id":200,"geometry":{"type":"Point","coordinates":[-83.5214044172952,33.4150309112023]},"properties":{"OBJECTID":200,"GM_Region":"3","PropName":"B. F. GRANT WMA","Name":null,"Surface":"Dirt","Management":"GM","Comments":null,"GlobalID":"f6d78434-28e5-4a36-b460-e9319b32cf44"}},{"type":"Feature","id":201,"geometry":{"type":"Point","coordinates":[-84.5341654850485,32.8953698592242]},"properties":{"OBJECTID":201,"GM_Region":"1","PropName":"SPREWELL BLUFF WMA","Name":null,"Surface":"Dirt","Management":"GM","Comments":null,"GlobalID":"077b18fe-844f-42f0-8d4d-84d3281b16e0"}},{"type":"Feature","id":202,"geometry":{"type":"Point","coordinates":[-84.5294069555701,32.8868831019787]},"properties":{"OBJECTID":202,"GM_Region":"1","PropName":"SPREWELL BLUFF WMA","Name":null,"Surface":"Dirt","Management":"GM","Comments":null,"GlobalID":"ff044c74-ad96-4a9c-b226-3d920da89caf"}},{"type":"Feature","id":203,"geometry":{"type":"Point","coordinates":[-83.6020880037723,33.1582907359017]},"properties":{"OBJECTID":203,"GM_Region":"3","PropName":"CEDAR CREEK WMA","Name":null,"Surface":"Gravel","Management":"GM","Comments":null,"GlobalID":"3a3280ce-cc97-4181-8053-9bdae59cf8ea"}},{"type":"Feature","id":204,"geometry":{"type":"Point","coordinates":[-85.0659237382341,33.1602151294421]},"properties":{"OBJECTID":204,"GM_Region":"1","PropName":"WEST POINT WMA","Name":null,"Surface":null,"Management":"GM","Comments":null,"GlobalID":"df0eb323-d96f-4849-b5e6-7598b3f77690"}},{"type":"Feature","id":205,"geometry":{"type":"Point","coordinates":[-85.0647586997163,33.1590728524791]},"properties":{"OBJECTID":205,"GM_Region":"1","PropName":"WEST POINT WMA","Name":null,"Surface":null,"Management":"GM","Comments":null,"GlobalID":"e1d2c92b-876f-4d4d-9391-ea43bbb6ef72"}},{"type":"Feature","id":206,"geometry":{"type":"Point","coordinates":[-85.0703985367426,33.1616410616705]},"properties":{"OBJECTID":206,"GM_Region":"1","PropName":"WEST POINT WMA","Name":null,"Surface":null,"Management":"GM","Comments":null,"GlobalID":"0fbcddb5-53d6-4bcd-9a73-aa0d9931e3b5"}},{"type":"Feature","id":207,"geometry":{"type":"Point","coordinates":[-85.0940813985071,33.1828040281432]},"properties":{"OBJECTID":207,"GM_Region":"1","PropName":"WEST POINT WMA","Name":null,"Surface":null,"Management":"GM","Comments":null,"GlobalID":"bc04cad1-6ba3-470f-8ea7-44febbfdf7f8"}},{"type":"Feature","id":208,"geometry":{"type":"Point","coordinates":[-85.119665039871,33.2575996232144]},"properties":{"OBJECTID":208,"GM_Region":"1","PropName":"WEST POINT WMA","Name":null,"Surface":null,"Management":"GM","Comments":null,"GlobalID":"ff1c0d0d-3238-4c9e-84e4-cfb5ae6972d0"}},{"type":"Feature","id":209,"geometry":{"type":"Point","coordinates":[-85.0851376105418,33.0974881789385]},"properties":{"OBJECTID":209,"GM_Region":"1","PropName":"WEST POINT WMA","Name":null,"Surface":null,"Management":"GM","Comments":null,"GlobalID":"91ffe2e2-eae4-446b-b173-17ca79431091"}},{"type":"Feature","id":210,"geometry":{"type":"Point","coordinates":[-85.0892782114594,33.1369517515423]},"properties":{"OBJECTID":210,"GM_Region":"1","PropName":"WEST POINT WMA","Name":null,"Surface":null,"Management":"GM","Comments":null,"GlobalID":"1b4e37af-bed1-4c1c-b1a8-c97f1aa2fc63"}},{"type":"Feature","id":211,"geometry":{"type":"Point","coordinates":[-84.5188020260185,32.9613675598152]},"properties":{"OBJECTID":211,"GM_Region":"3","PropName":"CAMP THUNDER VPA","Name":null,"Surface":"Gravel","Management":"GM","Comments":null,"GlobalID":"7f1c7b0f-689c-4687-a988-a1fcaeb678f5"}},{"type":"Feature","id":212,"geometry":{"type":"Point","coordinates":[-84.3351479563143,34.5066309931407]},"properties":{"OBJECTID":212,"GM_Region":"2","PropName":"DAWSON FOREST WMA","Name":null,"Surface":"Gravel","Management":"GM","Comments":null,"GlobalID":"76fa1ddd-7d79-44c7-b119-87d313852e26"}},{"type":"Feature","id":213,"geometry":{"type":"Point","coordinates":[-81.4658966707726,31.3384956463277]},"properties":{"OBJECTID":213,"GM_Region":"6","PropName":"ALTAMAHA WMA","Name":null,"Surface":"Gravel","Management":"GM","Comments":null,"GlobalID":"60b110c6-b119-41da-80c2-1ce35c11474e"}},{"type":"Feature","id":214,"geometry":{"type":"Point","coordinates":[-81.464995448413,31.3386147726568]},"properties":{"OBJECTID":214,"GM_Region":"6","PropName":"ALTAMAHA WMA","Name":null,"Surface":"Dirt","Management":"GM","Comments":null,"GlobalID":"b99e89f8-8794-41e1-8626-1679785a7af9"}},{"type":"Feature","id":215,"geometry":{"type":"Point","coordinates":[-81.4600977344224,31.3355953212568]},"properties":{"OBJECTID":215,"GM_Region":"6","PropName":"ALTAMAHA WMA","Name":null,"Surface":"Dirt","Management":"GM","Comments":null,"GlobalID":"d0397b3b-804f-4bb0-a973-6bba59dc37da"}},{"type":"Feature","id":216,"geometry":{"type":"Point","coordinates":[-81.4557069591616,31.34674984457]},"properties":{"OBJECTID":216,"GM_Region":"6","PropName":"ALTAMAHA WMA","Name":null,"Surface":"Dirt","Management":"GM","Comments":null,"GlobalID":"ca8e0b7f-9c4f-4a44-b2f8-c9787b1dd882"}},{"type":"Feature","id":217,"geometry":{"type":"Point","coordinates":[-81.4580431629844,31.344214006172]},"properties":{"OBJECTID":217,"GM_Region":"6","PropName":"ALTAMAHA WMA","Name":null,"Surface":"Dirt","Management":"GM","Comments":null,"GlobalID":"6c214cf3-aa66-4b87-a53f-3628982c47e8"}},{"type":"Feature","id":218,"geometry":{"type":"Point","coordinates":[-81.4554521483517,31.3382761653844]},"properties":{"OBJECTID":218,"GM_Region":"6","PropName":"ALTAMAHA WMA","Name":null,"Surface":"Dirt","Management":"GM","Comments":null,"GlobalID":"e86507fa-85f5-4df2-9a29-b7eb93daaf3e"}},{"type":"Feature","id":219,"geometry":{"type":"Point","coordinates":[-81.4543792649697,31.3374056174705]},"properties":{"OBJECTID":219,"GM_Region":"6","PropName":"ALTAMAHA WMA","Name":null,"Surface":"Gravel","Management":"GM","Comments":null,"GlobalID":"31b25ce7-8ebb-4980-9086-1801ade2b84c"}},{"type":"Feature","id":220,"geometry":{"type":"Point","coordinates":[-84.434456131113,34.6227396213253]},"properties":{"OBJECTID":220,"GM_Region":"1","PropName":"RICH MOUNTAIN WMA - CARTECAY TRACT","Name":"Blackberry Mountain","Surface":"Gravel","Management":"GM","Comments":null,"GlobalID":"c374c16d-2098-46fa-8349-638202c0217f"}},{"type":"Feature","id":221,"geometry":{"type":"Point","coordinates":[-82.7427969771823,32.4031940460434]},"properties":{"OBJECTID":221,"GM_Region":"4","PropName":"RIVER BEND WMA","Name":null,"Surface":"Dirt","Management":"GM","Comments":null,"GlobalID":"93d76165-132c-42d7-8b2d-25185ee3d58a"}},{"type":"Feature","id":222,"geometry":{"type":"Point","coordinates":[-82.7474265963316,32.3930840927628]},"properties":{"OBJECTID":222,"GM_Region":"4","PropName":"RIVER BEND WMA","Name":null,"Surface":"Dirt","Management":"GM","Comments":null,"GlobalID":"d9195d25-3255-47bc-a8c0-67461b223186"}},{"type":"Feature","id":223,"geometry":{"type":"Point","coordinates":[-82.7414175006861,32.3845987712406]},"properties":{"OBJECTID":223,"GM_Region":"4","PropName":"RIVER BEND WMA","Name":null,"Surface":"Gravel","Management":"GM","Comments":null,"GlobalID":"707edbba-c172-43aa-930f-966815d0b97e"}},{"type":"Feature","id":226,"geometry":{"type":"Point","coordinates":[-82.4288637009601,32.5721492027207]},"properties":{"OBJECTID":226,"GM_Region":"4","PropName":"OHOOPEE DUNES WMA","Name":null,"Surface":null,"Management":"GM","Comments":null,"GlobalID":"6652b5e4-2321-4377-a9a1-569348bc2602"}},{"type":"Feature","id":227,"geometry":{"type":"Point","coordinates":[-82.4307808029069,32.5718469161797]},"properties":{"OBJECTID":227,"GM_Region":"4","PropName":"OHOOPEE DUNES WMA","Name":null,"Surface":null,"Management":"GM","Comments":null,"GlobalID":"0ff1c49f-c36e-4657-a244-a8bd7c79b56f"}},{"type":"Feature","id":228,"geometry":{"type":"Point","coordinates":[-82.4371130254392,32.5701963342997]},"properties":{"OBJECTID":228,"GM_Region":"4","PropName":"OHOOPEE DUNES WMA","Name":null,"Surface":null,"Management":"GM","Comments":null,"GlobalID":"8d7ef0b8-4dcf-4152-922d-a4599b2f26f8"}},{"type":"Feature","id":229,"geometry":{"type":"Point","coordinates":[-83.1942760856673,30.9326164515942]},"properties":{"OBJECTID":229,"GM_Region":"6","PropName":"GRAND BAY WMA","Name":null,"Surface":"Paved","Management":"GM","Comments":null,"GlobalID":"82222303-bcf4-4095-b608-3baf3c29727b"}},{"type":"Feature","id":230,"geometry":{"type":"Point","coordinates":[-83.1878868958478,30.9333422825352]},"properties":{"OBJECTID":230,"GM_Region":"6","PropName":"GRAND BAY WMA","Name":null,"Surface":"Paved","Management":"GM","Comments":null,"GlobalID":"88dc84d0-64fd-4fde-9287-46a53a1ca9c2"}},{"type":"Feature","id":231,"geometry":{"type":"Point","coordinates":[-83.1969876304071,30.9371731056823]},"properties":{"OBJECTID":231,"GM_Region":"6","PropName":"GRAND BAY WMA","Name":null,"Surface":"Gravel","Management":"GM","Comments":null,"GlobalID":"f24ae70c-7c0f-446e-98cc-c64c14609436"}},{"type":"Feature","id":232,"geometry":{"type":"Point","coordinates":[-83.1826151812388,30.9395131239836]},"properties":{"OBJECTID":232,"GM_Region":"6","PropName":"GRAND BAY WMA","Name":null,"Surface":"Dirt","Management":"GM","Comments":null,"GlobalID":"60d7a7c0-cf67-4538-8ef9-5e5b9e8e3e2c"}},{"type":"Feature","id":233,"geometry":{"type":"Point","coordinates":[-83.3885368330315,31.5386530710138]},"properties":{"OBJECTID":233,"GM_Region":"4","PropName":"ALAPAHA RIVER WMA","Name":null,"Surface":null,"Management":"GM","Comments":null,"GlobalID":"112d4a25-8e10-461e-86a3-b8bd87d3c26e"}},{"type":"Feature","id":234,"geometry":{"type":"Point","coordinates":[-83.3842887166771,31.5330731543095]},"properties":{"OBJECTID":234,"GM_Region":"4","PropName":"ALAPAHA RIVER WMA","Name":null,"Surface":null,"Management":"GM","Comments":null,"GlobalID":"dbc9312a-fb43-467f-9350-e3a19852d397"}},{"type":"Feature","id":235,"geometry":{"type":"Point","coordinates":[-84.4606372687323,34.6513328776047]},"properties":{"OBJECTID":235,"GM_Region":"1","PropName":"RICH MOUNTAIN WMA - CARTECAY TRACT","Name":"Bible Baptist Parking Area","Surface":"Gravel","Management":"GM","Comments":null,"GlobalID":"b8191e89-89f0-4aa1-906c-78308d22ae10"}},{"type":"Feature","id":236,"geometry":{"type":"Point","coordinates":[-84.4376702078356,34.6466419315106]},"properties":{"OBJECTID":236,"GM_Region":"1","PropName":"RICH MOUNTAIN WMA - CARTECAY TRACT","Name":"Martin Road Parking Area","Surface":"Gravel","Management":"GM","Comments":null,"GlobalID":"ea1c7af3-74d4-421d-ad9b-601c8bd2a359"}},{"type":"Feature","id":237,"geometry":{"type":"Point","coordinates":[-83.7288212550027,33.4414877445864]},"properties":{"OBJECTID":237,"GM_Region":"3","PropName":"CLYBEL WMA","Name":null,"Surface":"Gravel","Management":"FM","Comments":null,"GlobalID":"57ef6eee-7374-438a-afca-17ed66277829"}},{"type":"Feature","id":238,"geometry":{"type":"Point","coordinates":[-83.7317808850403,33.444444237788]},"properties":{"OBJECTID":238,"GM_Region":"3","PropName":"CLYBEL WMA","Name":null,"Surface":"Gravel","Management":"FM","Comments":null,"GlobalID":"c8b8ce68-183d-45ac-afd6-18102fbe7f9f"}},{"type":"Feature","id":239,"geometry":{"type":"Point","coordinates":[-83.7307178849195,33.4442001621907]},"properties":{"OBJECTID":239,"GM_Region":"3","PropName":"CLYBEL WMA","Name":null,"Surface":"Gravel","Management":"FM","Comments":null,"GlobalID":"cb5ed4d6-e97f-4cb0-a3d5-a13d04e33951"}},{"type":"Feature","id":240,"geometry":{"type":"Point","coordinates":[-83.7893220191401,34.7018310443713]},"properties":{"OBJECTID":240,"GM_Region":"2","PropName":"CHATTAHOOCHEE WMA","Name":null,"Surface":"Paved","Management":"GM","Comments":null,"GlobalID":"471a90a9-d1d2-423d-92b5-3f5b0e4b4dc5"}},{"type":"Feature","id":241,"geometry":{"type":"Point","coordinates":[-82.5254528730817,31.9495522573064]},"properties":{"OBJECTID":241,"GM_Region":"4","PropName":"BULLARD CREEK WMA","Name":null,"Surface":"Dirt","Management":"GM","Comments":null,"GlobalID":"2646a90f-7ec1-437d-93e9-da9a760e8370"}},{"type":"Feature","id":242,"geometry":{"type":"Point","coordinates":[-82.5252212201514,31.9516719661085]},"properties":{"OBJECTID":242,"GM_Region":"4","PropName":"BULLARD CREEK WMA","Name":null,"Surface":"Dirt","Management":"GM","Comments":null,"GlobalID":"e351ff50-6db0-466f-8d84-20f713b7153e"}},{"type":"Feature","id":243,"geometry":{"type":"Point","coordinates":[-82.5357727193246,31.9505600999689]},"properties":{"OBJECTID":243,"GM_Region":"4","PropName":"BULLARD CREEK WMA","Name":null,"Surface":"Dirt","Management":"GM","Comments":null,"GlobalID":"48b0430e-ea48-4bb8-a61b-cf0e16270340"}},{"type":"Feature","id":244,"geometry":{"type":"Point","coordinates":[-82.4789590673896,31.9617153456039]},"properties":{"OBJECTID":244,"GM_Region":"4","PropName":"BULLARD CREEK WMA","Name":null,"Surface":null,"Management":"GM","Comments":null,"GlobalID":"eefaf5b1-9cec-4789-99b4-6c4c0e4cda0f"}},{"type":"Feature","id":245,"geometry":{"type":"Point","coordinates":[-82.4813363734432,31.9599209556953]},"properties":{"OBJECTID":245,"GM_Region":"4","PropName":"BULLARD CREEK WMA","Name":null,"Surface":null,"Management":"GM","Comments":null,"GlobalID":"02765812-59a6-4c5a-b60b-10aefbf3eb91"}},{"type":"Feature","id":246,"geometry":{"type":"Point","coordinates":[-82.4912136267576,31.9597330400754]},"properties":{"OBJECTID":246,"GM_Region":"4","PropName":"BULLARD CREEK WMA","Name":null,"Surface":null,"Management":"GM","Comments":null,"GlobalID":"74f943f0-9a87-422c-ba03-14bda15b6658"}},{"type":"Feature","id":247,"geometry":{"type":"Point","coordinates":[-82.5579252036007,31.9430284183996]},"properties":{"OBJECTID":247,"GM_Region":"4","PropName":"BULLARD CREEK WMA - OCMULGEE TRACT","Name":null,"Surface":null,"Management":"GM","Comments":null,"GlobalID":"decfe9bf-9f3f-4ab8-bfc7-f4bc34ce3572"}},{"type":"Feature","id":248,"geometry":{"type":"Point","coordinates":[-82.062503155545,31.8504385790054]},"properties":{"OBJECTID":248,"GM_Region":"4","PropName":"BIG HAMMOCK WMA","Name":null,"Surface":"Gravel","Management":"GM","Comments":null,"GlobalID":"083cf9d5-3a89-478d-8cf8-64d5adc84a95"}},{"type":"Feature","id":249,"geometry":{"type":"Point","coordinates":[-82.0231715775872,31.8349072900232]},"properties":{"OBJECTID":249,"GM_Region":"4","PropName":"BIG HAMMOCK WMA","Name":null,"Surface":null,"Management":"GM","Comments":null,"GlobalID":"3601704c-d35f-48b8-9d2a-9a68c8db7681"}},{"type":"Feature","id":250,"geometry":{"type":"Point","coordinates":[-82.1064621299636,31.8856419856165]},"properties":{"OBJECTID":250,"GM_Region":"4","PropName":"BIG HAMMOCK WMA","Name":null,"Surface":"Other","Management":"GM","Comments":null,"GlobalID":"e3e0b7d4-64b4-4df7-be71-629cff16f995"}},{"type":"Feature","id":251,"geometry":{"type":"Point","coordinates":[-83.3592406568709,31.4905507120539]},"properties":{"OBJECTID":251,"GM_Region":"4","PropName":"ALAPAHA RIVER WMA","Name":null,"Surface":null,"Management":"GM","Comments":null,"GlobalID":"33ed3614-f611-45e4-87b3-eaf23b0a4f82"}},{"type":"Feature","id":252,"geometry":{"type":"Point","coordinates":[-84.3120633448897,34.7809987400367]},"properties":{"OBJECTID":252,"GM_Region":"1","PropName":"RICH MOUNTAIN WMA","Name":null,"Surface":"Gravel","Management":"GM","Comments":null,"GlobalID":"07d73a2f-8557-436f-b624-18b96671405c"}},{"type":"Feature","id":253,"geometry":{"type":"Point","coordinates":[-84.6460073574668,34.9774275739361]},"properties":{"OBJECTID":253,"GM_Region":"1","PropName":"COHUTTA WMA","Name":null,"Surface":"Gravel","Management":"GM","Comments":null,"GlobalID":"7fbd2eb0-594d-40f4-8387-4d4390123b86"}},{"type":"Feature","id":255,"geometry":{"type":"Point","coordinates":[-83.1652363949261,33.3403953773545]},"properties":{"OBJECTID":255,"GM_Region":"3","PropName":"OCONEE WMA","Name":null,"Surface":null,"Management":"GM","Comments":null,"GlobalID":"85825b62-5ac9-4227-ba49-e482ef5ad799"}},{"type":"Feature","id":256,"geometry":{"type":"Point","coordinates":[-83.1529030107053,33.3446435346941]},"properties":{"OBJECTID":256,"GM_Region":"3","PropName":"OCONEE WMA","Name":null,"Surface":null,"Management":"GM","Comments":null,"GlobalID":"1696f0d0-47c2-431a-91da-29bdb59e76c8"}},{"type":"Feature","id":257,"geometry":{"type":"Point","coordinates":[-84.8851442712634,34.0466989046517]},"properties":{"OBJECTID":257,"GM_Region":"1","PropName":"SHEFFIELD WMA","Name":null,"Surface":null,"Management":"GM","Comments":null,"GlobalID":"c2648601-8ef6-48cd-8df6-e8516428ec88"}},{"type":"Feature","id":258,"geometry":{"type":"Point","coordinates":[-84.8787233277862,34.0608385324381]},"properties":{"OBJECTID":258,"GM_Region":"1","PropName":"SHEFFIELD WMA","Name":null,"Surface":null,"Management":"GM","Comments":null,"GlobalID":"1265a363-51d3-459f-971e-68db19473f57"}},{"type":"Feature","id":259,"geometry":{"type":"Point","coordinates":[-84.9075737881316,34.0493029485312]},"properties":{"OBJECTID":259,"GM_Region":"1","PropName":"SHEFFIELD WMA","Name":null,"Surface":null,"Management":"GM","Comments":null,"GlobalID":"4babdf25-bc4e-4f94-a6c0-73f8183418c2"}},{"type":"Feature","id":260,"geometry":{"type":"Point","coordinates":[-84.9364230841573,34.0358560009911]},"properties":{"OBJECTID":260,"GM_Region":"1","PropName":"SHEFFIELD WMA","Name":null,"Surface":null,"Management":"GM","Comments":null,"GlobalID":"7418a69f-d72f-4f4c-a239-d72515364d10"}},{"type":"Feature","id":261,"geometry":{"type":"Point","coordinates":[-85.1880524328701,34.382862280604]},"properties":{"OBJECTID":261,"GM_Region":"1","PropName":"BERRY COLLEGE WMA","Name":null,"Surface":null,"Management":"GM","Comments":null,"GlobalID":"10be675c-a11a-470b-bfb7-8ccf6ee5ca44"}},{"type":"Feature","id":262,"geometry":{"type":"Point","coordinates":[-83.6853816387362,33.6284823417986]},"properties":{"OBJECTID":262,"GM_Region":"3","PropName":"WALTON WMA","Name":null,"Surface":"Dirt","Management":"GM","Comments":null,"GlobalID":"29f014e8-de0a-4464-ae11-b77b78a77e87"}},{"type":"Feature","id":263,"geometry":{"type":"Point","coordinates":[-84.315123047708,34.3244807534801]},"properties":{"OBJECTID":263,"GM_Region":"1","PropName":"MCGRAW FORD WMA","Name":null,"Surface":"Gravel","Management":"GM","Comments":null,"GlobalID":"b693f1a1-ddbf-4f1d-b83a-59d7682fc5d1"}},{"type":"Feature","id":264,"geometry":{"type":"Point","coordinates":[-84.3488114569072,34.3229492709824]},"properties":{"OBJECTID":264,"GM_Region":"1","PropName":"MCGRAW FORD WMA","Name":null,"Surface":"Gravel","Management":"GM","Comments":null,"GlobalID":"7577d4ab-968c-4493-899d-4a734eeab4d5"}},{"type":"Feature","id":265,"geometry":{"type":"Point","coordinates":[-81.3634714627887,31.454083923715]},"properties":{"OBJECTID":265,"GM_Region":"6","PropName":"SAPELO ISLAND WMA","Name":null,"Surface":"Paved","Management":"GM","Comments":null,"GlobalID":"d31f280d-bb4a-4f0d-92b3-10432ac7c35a"}},{"type":"Feature","id":266,"geometry":{"type":"Point","coordinates":[-81.2955308434511,31.4178021073767]},"properties":{"OBJECTID":266,"GM_Region":"6","PropName":"SAPELO ISLAND WMA","Name":null,"Surface":"Paved","Management":"GM","Comments":null,"GlobalID":"811800d3-fe6a-473c-a24c-955062ebfb3f"}},{"type":"Feature","id":267,"geometry":{"type":"Point","coordinates":[-83.6341102070071,34.5662031239288]},"properties":{"OBJECTID":267,"GM_Region":"2","PropName":"BUCK SHOALS WMA","Name":"Day Use Parking Area","Surface":null,"Management":"GM","Comments":null,"GlobalID":"23d7dc67-d0d6-429a-b681-caa7f50aabc4"}},{"type":"Feature","id":268,"geometry":{"type":"Point","coordinates":[-84.4460608993653,34.6549357752115]},"properties":{"OBJECTID":268,"GM_Region":"1","PropName":"RICH MOUNTAIN WMA - CARTECAY TRACT","Name":"Archery Range","Surface":"Gravel","Management":"GM","Comments":null,"GlobalID":"6c61cb7b-72f4-4c7e-98fc-87ad99c10301"}},{"type":"Feature","id":269,"geometry":{"type":"Point","coordinates":[-83.8806778802401,31.2875634977045]},"properties":{"OBJECTID":269,"GM_Region":"5","PropName":"DOERUN PITCHER PLANT BOG WMA","Name":null,"Surface":"Dirt","Management":"GM","Comments":null,"GlobalID":"dd5320c8-b4f8-4714-8eff-5c50eaff3859"}},{"type":"Feature","id":270,"geometry":{"type":"Point","coordinates":[-83.8748512945046,31.2878979154106]},"properties":{"OBJECTID":270,"GM_Region":"5","PropName":"DOERUN PITCHER PLANT BOG WMA","Name":null,"Surface":"Dirt","Management":"GM","Comments":null,"GlobalID":"6daef7f5-3830-43ba-a9ca-af9542bf7076"}},{"type":"Feature","id":271,"geometry":{"type":"Point","coordinates":[-83.8834398347627,31.2874596874698]},"properties":{"OBJECTID":271,"GM_Region":"5","PropName":"DOERUN PITCHER PLANT BOG WMA","Name":null,"Surface":"Gravel","Management":"GM","Comments":null,"GlobalID":"b9ea2495-dccb-4635-90d9-353172334cfd"}},{"type":"Feature","id":272,"geometry":{"type":"Point","coordinates":[-85.1491157327572,34.442358840383]},"properties":{"OBJECTID":272,"GM_Region":"1","PropName":"ARROWHEAD WMA","Name":null,"Surface":"Gravel","Management":"GM","Comments":null,"GlobalID":"7532640d-939b-4f7c-8395-05d3fc3c801f"}},{"type":"Feature","id":273,"geometry":{"type":"Point","coordinates":[-85.151487375069,34.4433523629673]},"properties":{"OBJECTID":273,"GM_Region":"1","PropName":"ARROWHEAD WMA","Name":null,"Surface":"Paved","Management":"GM","Comments":"Office Parking","GlobalID":"b45ae529-11b3-4a5a-8d5f-d739547a6f7d"}},{"type":"Feature","id":274,"geometry":{"type":"Point","coordinates":[-81.580159343811,31.4430647510914]},"properties":{"OBJECTID":274,"GM_Region":"6","PropName":"ALTAMAHA WMA","Name":null,"Surface":"Dirt","Management":"GM","Comments":null,"GlobalID":"ba137851-d80f-4b6b-9753-4f46688b7465"}},{"type":"Feature","id":275,"geometry":{"type":"Point","coordinates":[-81.4476170921994,31.3553826842016]},"properties":{"OBJECTID":275,"GM_Region":"6","PropName":"ALTAMAHA WMA","Name":null,"Surface":"Gravel","Management":"GM","Comments":null,"GlobalID":"24961a89-3098-4780-9db1-b447b6201e7d"}},{"type":"Feature","id":276,"geometry":{"type":"Point","coordinates":[-81.4544714773629,31.3564019462324]},"properties":{"OBJECTID":276,"GM_Region":"6","PropName":"ALTAMAHA WMA","Name":null,"Surface":"Dirt","Management":"GM","Comments":null,"GlobalID":"59e11810-c19b-4b3f-9766-837bc4f6c51c"}},{"type":"Feature","id":277,"geometry":{"type":"Point","coordinates":[-81.4467734721124,31.3506934848596]},"properties":{"OBJECTID":277,"GM_Region":"6","PropName":"ALTAMAHA WMA","Name":null,"Surface":"Dirt","Management":"GM","Comments":null,"GlobalID":"ffe9be88-db13-440c-a038-359e85f4f6f1"}},{"type":"Feature","id":278,"geometry":{"type":"Point","coordinates":[-81.4476103212263,31.3509706469462]},"properties":{"OBJECTID":278,"GM_Region":"6","PropName":"ALTAMAHA WMA","Name":null,"Surface":"Dirt","Management":"GM","Comments":null,"GlobalID":"62388f20-1c28-4bf4-bbed-bb4c4483b615"}},{"type":"Feature","id":284,"geometry":{"type":"Point","coordinates":[-82.4092919926926,31.6592715368652]},"properties":{"OBJECTID":284,"GM_Region":"4","PropName":"APPLING COUNTY DOVE FIELD VPA","Name":null,"Surface":"Dirt","Management":"OTH","Comments":null,"GlobalID":"80d869c6-6843-4436-9288-df8ecd4464b8"}},{"type":"Feature","id":291,"geometry":{"type":"Point","coordinates":[-82.4092672499645,31.6622310147629]},"properties":{"OBJECTID":291,"GM_Region":"4","PropName":"APPLING COUNTY DOVE FIELD VPA","Name":null,"Surface":"Dirt","Management":"OTH","Comments":null,"GlobalID":"31b8c9f7-1292-4607-80a3-04dfb344fa27"}},{"type":"Feature","id":293,"geometry":{"type":"Point","coordinates":[-85.2392412109999,34.3643122504977]},"properties":{"OBJECTID":293,"GM_Region":"1","PropName":"BERRY COLLEGE WMA","Name":null,"Surface":"Gravel","Management":"GM","Comments":null,"GlobalID":"94270780-d340-47d0-938f-1aa39da6c6cb"}},{"type":"Feature","id":294,"geometry":{"type":"Point","coordinates":[-85.1746820269416,34.3137642272524]},"properties":{"OBJECTID":294,"GM_Region":"1","PropName":"BERRY COLLEGE WMA","Name":null,"Surface":"Gravel","Management":"GM","Comments":null,"GlobalID":"7946672d-3f46-4abc-84e8-62d8a4d58c77"}},{"type":"Feature","id":295,"geometry":{"type":"Point","coordinates":[-85.1895882427422,33.9535259833424]},"properties":{"OBJECTID":295,"GM_Region":"1","PropName":"J. L. LESTER WMA","Name":null,"Surface":"Gravel","Management":"GM","Comments":null,"GlobalID":"9f14939a-f3bd-4b22-b7fc-998a46156124"}},{"type":"Feature","id":296,"geometry":{"type":"Point","coordinates":[-83.352393366416,31.5219297439928]},"properties":{"OBJECTID":296,"GM_Region":"4","PropName":"ALAPAHA RIVER WMA","Name":null,"Surface":null,"Management":"GM","Comments":null,"GlobalID":"93fa3471-7ef1-489c-b942-12eb2d4fd9df"}},{"type":"Feature","id":299,"geometry":{"type":"Point","coordinates":[-83.7877048906665,33.0757593808346]},"properties":{"OBJECTID":299,"GM_Region":"3","PropName":"RUM CREEK WMA","Name":null,"Surface":"Dirt","Management":"GM","Comments":null,"GlobalID":"b5312cd2-abba-4f0d-acb6-b83aa69922da"}},{"type":"Feature","id":300,"geometry":{"type":"Point","coordinates":[-83.7869579607549,33.0799698910148]},"properties":{"OBJECTID":300,"GM_Region":"3","PropName":"RUM CREEK WMA","Name":null,"Surface":"Dirt","Management":"GM","Comments":null,"GlobalID":"b5737d8f-7d51-4a1c-a78d-cdbb18ac01f1"}},{"type":"Feature","id":301,"geometry":{"type":"Point","coordinates":[-81.755167416156,31.569534279617]},"properties":{"OBJECTID":301,"GM_Region":"6","PropName":"PENHOLOWAY SWAMP WMA","Name":null,"Surface":"Dirt","Management":"GM","Comments":null,"GlobalID":"fb0a6ba2-7818-4037-9304-01227f317f67"}},{"type":"Feature","id":304,"geometry":{"type":"Point","coordinates":[-81.6528438731745,33.0971964349933]},"properties":{"OBJECTID":304,"GM_Region":"3","PropName":"YUCHI WMA","Name":"Brigham Landing ","Surface":null,"Management":"GM","Comments":null,"GlobalID":"5e248666-42dd-4e3b-980d-00144aa1514a"}},{"type":"Feature","id":305,"geometry":{"type":"Point","coordinates":[-85.0982330507085,34.576041341731]},"properties":{"OBJECTID":305,"GM_Region":"1","PropName":"JOHNS MOUNTAIN WMA","Name":null,"Surface":"Gravel","Management":"GM","Comments":null,"GlobalID":"d99d19f3-59f7-408a-be1a-9bb513fba4a9"}},{"type":"Feature","id":306,"geometry":{"type":"Point","coordinates":[-84.4527409420817,34.6208831636427]},"properties":{"OBJECTID":306,"GM_Region":"1","PropName":"RICH MOUNTAIN WMA - CARTECAY TRACT","Name":"Clear Creek","Surface":"Gravel","Management":"GM","Comments":null,"GlobalID":"1a05e20a-d7ea-417d-89fa-d2883f289e72"}},{"type":"Feature","id":307,"geometry":{"type":"Point","coordinates":[-85.3410913100783,34.7045222107411]},"properties":{"OBJECTID":307,"GM_Region":"1","PropName":"CROCKFORD-PIGEON MOUNTAIN WMA","Name":"Bluehole Horse Trail Parking","Surface":"Gravel","Management":"GM","Comments":"Bluehole Equestrian Day use Parking","GlobalID":"f4037739-cd69-486a-84c0-8d7d25b72f4e"}},{"type":"Feature","id":308,"geometry":{"type":"Point","coordinates":[-84.836502000099,34.3226390003848]},"properties":{"OBJECTID":308,"GM_Region":"1","PropName":"PLEASANT VALLEY VPA","Name":null,"Surface":"Dirt","Management":"GM","Comments":null,"GlobalID":"b844786d-3029-497e-8730-fa0216cddbff"}},{"type":"Feature","id":309,"geometry":{"type":"Point","coordinates":[-85.4732055330048,34.5407278559266]},"properties":{"OBJECTID":309,"GM_Region":"1","PropName":"OTTING TRACT WMA","Name":null,"Surface":"Gravel","Management":"GM","Comments":null,"GlobalID":"2bdb085e-69de-4c84-971e-a49118025d34"}},{"type":"Feature","id":314,"geometry":{"type":"Point","coordinates":[-83.6164509727303,32.6698743382663]},"properties":{"OBJECTID":314,"GM_Region":"3","PropName":"ECHECONNEE CREEK WMA","Name":null,"Surface":"Dirt","Management":"GM","Comments":null,"GlobalID":"f89b4929-40e4-4ca6-8ae5-c5043fd47c26"}},{"type":"Feature","id":315,"geometry":{"type":"Point","coordinates":[-83.6102269440425,32.6698746171739]},"properties":{"OBJECTID":315,"GM_Region":"3","PropName":"ECHECONNEE CREEK WMA","Name":null,"Surface":"Dirt","Management":"GM","Comments":null,"GlobalID":"cc23bc11-8a06-4d36-a978-79f7259ca6e1"}},{"type":"Feature","id":316,"geometry":{"type":"Point","coordinates":[-83.6030616517562,32.6676614780922]},"properties":{"OBJECTID":316,"GM_Region":"3","PropName":"ECHECONNEE CREEK WMA","Name":null,"Surface":"Dirt","Management":"GM","Comments":null,"GlobalID":"12a54eb6-0ed2-4133-86c4-ad542919efa4"}},{"type":"Feature","id":317,"geometry":{"type":"Point","coordinates":[-85.082053172883,34.5844242810613]},"properties":{"OBJECTID":317,"GM_Region":"1","PropName":"JOHNS MOUNTAIN WMA","Name":"Pocket Parking","Surface":"Paved","Management":"GM","Comments":null,"GlobalID":"cfa37d1b-d30d-4303-a273-1a112059e5db"}},{"type":"Feature","id":318,"geometry":{"type":"Point","coordinates":[-85.0800641648393,34.6146814796263]},"properties":{"OBJECTID":318,"GM_Region":"1","PropName":"JOHNS MOUNTAIN WMA","Name":null,"Surface":"Gravel","Management":"OTH","Comments":null,"GlobalID":"3a8b751b-d09d-49f8-ae2a-0386c7410d62"}},{"type":"Feature","id":319,"geometry":{"type":"Point","coordinates":[-85.0472493138905,34.6173317917934]},"properties":{"OBJECTID":319,"GM_Region":"1","PropName":"JOHNS MOUNTAIN WMA","Name":null,"Surface":"Gravel","Management":"OTH","Comments":null,"GlobalID":"bd925b33-41a2-4470-b3a5-866b7ff4b29e"}},{"type":"Feature","id":320,"geometry":{"type":"Point","coordinates":[-83.3618556871123,31.4119051652998]},"properties":{"OBJECTID":320,"GM_Region":"6","PropName":"PARADISE PFA","Name":null,"Surface":"Gravel","Management":"FM","Comments":null,"GlobalID":"73519d12-ba69-475c-a50e-8a019c62e230"}},{"type":"Feature","id":322,"geometry":{"type":"Point","coordinates":[-84.3392075302655,34.3064314586496]},"properties":{"OBJECTID":322,"GM_Region":"1","PropName":"MCGRAW FORD WMA","Name":null,"Surface":"Gravel","Management":"GM","Comments":null,"GlobalID":"1d48c7c3-142a-4aaa-b49c-86aa8c224028"}},{"type":"Feature","id":323,"geometry":{"type":"Point","coordinates":[-85.2235074604735,34.3627479287052]},"properties":{"OBJECTID":323,"GM_Region":"1","PropName":"BERRY COLLEGE WMA","Name":null,"Surface":"Dirt","Management":"GM","Comments":null,"GlobalID":"16573d3b-ce16-4789-b1fb-31975379c973"}},{"type":"Feature","id":327,"geometry":{"type":"Point","coordinates":[-83.3781157322565,34.7406576222916]},"properties":{"OBJECTID":327,"GM_Region":"2","PropName":"TALLULAH GORGE WMA","Name":null,"Surface":"Dirt","Management":"GM","Comments":null,"GlobalID":"a15cb14d-6650-490b-a117-f118260cc892"}},{"type":"Feature","id":328,"geometry":{"type":"Point","coordinates":[-85.0258167874795,32.5801565226841]},"properties":{"OBJECTID":328,"GM_Region":"5","PropName":"STANDING BOY CREEK WMA","Name":null,"Surface":null,"Management":"SP","Comments":null,"GlobalID":"4889d7e1-11d4-43c6-976d-1dae876d4f32"}},{"type":"Feature","id":329,"geometry":{"type":"Point","coordinates":[-85.0261399997575,32.5820299999222]},"properties":{"OBJECTID":329,"GM_Region":"5","PropName":"STANDING BOY CREEK WMA","Name":null,"Surface":null,"Management":"SP","Comments":null,"GlobalID":"6b6ae09c-ba0c-4c59-b466-1393b4b7f1d7"}},{"type":"Feature","id":330,"geometry":{"type":"Point","coordinates":[-83.5231637379216,33.412213130072]},"properties":{"OBJECTID":330,"GM_Region":"3","PropName":"B. F. GRANT WMA","Name":null,"Surface":"Gravel","Management":"GM","Comments":null,"GlobalID":"ef734148-2d63-424e-acb7-93fcd7a36d59"}},{"type":"Feature","id":336,"geometry":{"type":"Point","coordinates":[-82.4639932166928,33.6114595066172]},"properties":{"OBJECTID":336,"GM_Region":"3","PropName":"GERMANY CREEK WMA","Name":null,"Surface":null,"Management":"GM","Comments":null,"GlobalID":"2a877f80-b096-4342-b6f6-358a476d311a"}},{"type":"Feature","id":337,"geometry":{"type":"Point","coordinates":[-82.4647824753117,33.6109242018333]},"properties":{"OBJECTID":337,"GM_Region":"3","PropName":"GERMANY CREEK WMA","Name":null,"Surface":null,"Management":"GM","Comments":null,"GlobalID":"87efee68-e81a-4751-b621-c835fe959c86"}},{"type":"Feature","id":338,"geometry":{"type":"Point","coordinates":[-82.4671282343038,33.6094049439959]},"properties":{"OBJECTID":338,"GM_Region":"3","PropName":"GERMANY CREEK WMA","Name":null,"Surface":null,"Management":"GM","Comments":null,"GlobalID":"7b1a784a-98f9-4089-9bc9-8411f839b64f"}},{"type":"Feature","id":339,"geometry":{"type":"Point","coordinates":[-82.4737051808877,33.6289747920863]},"properties":{"OBJECTID":339,"GM_Region":"3","PropName":"GERMANY CREEK WMA","Name":null,"Surface":null,"Management":"GM","Comments":null,"GlobalID":"67c728fc-0e7d-4094-8084-ce8b1070718c"}},{"type":"Feature","id":340,"geometry":{"type":"Point","coordinates":[-82.1940245423066,31.994695517296]},"properties":{"OBJECTID":340,"GM_Region":"4","PropName":"ROGERS STATE PRISON FARM DOVE FIELDS","Name":null,"Surface":"Dirt","Management":"OTH","Comments":null,"GlobalID":"a2b8048f-bc90-49d0-b8c4-004400d8c4c6"}},{"type":"Feature","id":349,"geometry":{"type":"Point","coordinates":[-82.4155075289094,31.651189000938]},"properties":{"OBJECTID":349,"GM_Region":"4","PropName":"APPLING COUNTY DOVE FIELD VPA","Name":null,"Surface":null,"Management":"GM","Comments":null,"GlobalID":"323298ca-4dce-47ca-9e77-df6643c9b12f"}},{"type":"Feature","id":350,"geometry":{"type":"Point","coordinates":[-82.184716001833,31.9777886958706]},"properties":{"OBJECTID":350,"GM_Region":"4","PropName":"ROGERS STATE PRISON FARM DOVE FIELDS","Name":null,"Surface":"Dirt","Management":"OTH","Comments":null,"GlobalID":"55882017-617c-420a-8a45-dc75d2010028"}},{"type":"Feature","id":352,"geometry":{"type":"Point","coordinates":[-85.1467013523944,34.4420159480724]},"properties":{"OBJECTID":352,"GM_Region":"1","PropName":"ARROWHEAD WMA","Name":null,"Surface":"Gravel","Management":"GM","Comments":null,"GlobalID":"9cf027e7-705b-4976-b947-3f965ceb164b"}},{"type":"Feature","id":353,"geometry":{"type":"Point","coordinates":[-85.3625439505639,34.6400384140364]},"properties":{"OBJECTID":353,"GM_Region":"1","PropName":"CROCKFORD-PIGEON MOUNTAIN WMA","Name":"McCloud North","Surface":"Gravel","Management":"GM","Comments":null,"GlobalID":"83132182-977c-44ab-81aa-2c1676f26744"}},{"type":"Feature","id":354,"geometry":{"type":"Point","coordinates":[-85.3181182007652,34.7823861445353]},"properties":{"OBJECTID":354,"GM_Region":"1","PropName":"CROCKFORD-PIGEON MOUNTAIN WMA","Name":null,"Surface":"Gravel","Management":"GM","Comments":null,"GlobalID":"44721393-a8e7-4ff0-a9af-3cf1e45ab4b4"}},{"type":"Feature","id":355,"geometry":{"type":"Point","coordinates":[-84.7797503338534,34.6137623382289]},"properties":{"OBJECTID":355,"GM_Region":"1","PropName":"MCENTIRE ROAD VPA","Name":null,"Surface":"Other","Management":"GM","Comments":null,"GlobalID":"3f01511d-093d-44dc-92cb-26ff89a7d7c8"}},{"type":"Feature","id":356,"geometry":{"type":"Point","coordinates":[-85.3172832525168,34.7734707979111]},"properties":{"OBJECTID":356,"GM_Region":"1","PropName":"CROCKFORD-PIGEON MOUNTAIN WMA","Name":null,"Surface":"Gravel","Management":"GM","Comments":null,"GlobalID":"08d568e8-ed5c-4b17-bc28-eac5966d01ca"}},{"type":"Feature","id":357,"geometry":{"type":"Point","coordinates":[-85.3061626129359,34.7685297700186]},"properties":{"OBJECTID":357,"GM_Region":"1","PropName":"CROCKFORD-PIGEON MOUNTAIN WMA","Name":null,"Surface":"Dirt","Management":"GM","Comments":null,"GlobalID":"e95e7153-c24d-41b9-9c52-c0757ba61a6a"}},{"type":"Feature","id":358,"geometry":{"type":"Point","coordinates":[-81.7700546394195,32.1916154766134]},"properties":{"OBJECTID":358,"GM_Region":"4","PropName":"CANOOCHEE SANDHILLS WMA","Name":null,"Surface":"Dirt","Management":"WCS","Comments":null,"GlobalID":"9bffa8cc-acdc-4075-9da3-28ca0c56b74d"}},{"type":"Feature","id":359,"geometry":{"type":"Point","coordinates":[-82.5946039582683,33.6698876018848]},"properties":{"OBJECTID":359,"GM_Region":"3","PropName":"CLARKS HILL WMA - EAST","Name":"Dove field #2","Surface":"Gravel","Management":"GM","Comments":null,"GlobalID":"cd71352c-7a3e-498c-9619-47f656742371"}},{"type":"Feature","id":360,"geometry":{"type":"Point","coordinates":[-82.5032670959284,33.635128785656]},"properties":{"OBJECTID":360,"GM_Region":"3","PropName":"CLARKS HILL WMA - EAST","Name":null,"Surface":"Gravel","Management":"GM","Comments":null,"GlobalID":"c1b1960a-bd7f-4cfd-b25a-46a17fde9c0e"}},{"type":"Feature","id":361,"geometry":{"type":"Point","coordinates":[-85.1202528884863,33.8955673273027]},"properties":{"OBJECTID":361,"GM_Region":"1","PropName":"TALLAPOOSA RIVER WMA","Name":null,"Surface":null,"Management":"GM","Comments":null,"GlobalID":"0645a1d2-06cd-4000-b2da-ddead047e9ec"}},{"type":"Feature","id":362,"geometry":{"type":"Point","coordinates":[-85.2136183523888,33.9427763801188]},"properties":{"OBJECTID":362,"GM_Region":"1","PropName":"J. L. LESTER WMA","Name":"Cobb Mtn.","Surface":null,"Management":"GM","Comments":null,"GlobalID":"c6ab4b32-52ac-4fa7-b458-6a759ab24412"}},{"type":"Feature","id":363,"geometry":{"type":"Point","coordinates":[-85.2052493394226,33.9472701723127]},"properties":{"OBJECTID":363,"GM_Region":"1","PropName":"J. L. LESTER WMA","Name":"Check Station","Surface":null,"Management":"GM","Comments":null,"GlobalID":"e9814dc8-aea8-4b7b-8c20-26617d3ebdfc"}},{"type":"Feature","id":364,"geometry":{"type":"Point","coordinates":[-84.4737614487422,31.3268815002887]},"properties":{"OBJECTID":364,"GM_Region":"5","PropName":"ELMODEL WMA","Name":"","Surface":"Dirt","Management":"GM","Comments":"Dove Field Parking","GlobalID":"1592b0bd-2e2a-4277-ac0b-a5ddf35beffc"}},{"type":"Feature","id":365,"geometry":{"type":"Point","coordinates":[-84.5708861085186,32.4371043677674]},"properties":{"OBJECTID":365,"GM_Region":"5","PropName":"CHATTAHOOCHEE FALL LINE WMA - VPA TRACTS","Name":"","Surface":"Dirt","Management":"GM","Comments":"","GlobalID":"20c3bbd5-d889-4525-a57d-3298e669013c"}},{"type":"Feature","id":366,"geometry":{"type":"Point","coordinates":[-84.5759556750046,32.4362761226096]},"properties":{"OBJECTID":366,"GM_Region":"5","PropName":"CHATTAHOOCHEE FALL LINE WMA - VPA TRACTS","Name":"","Surface":"Dirt","Management":"GM","Comments":"","GlobalID":"64113bb0-5d1d-4730-9ed2-89d299218a34"}},{"type":"Feature","id":367,"geometry":{"type":"Point","coordinates":[-84.6052721342104,32.5181480000119]},"properties":{"OBJECTID":367,"GM_Region":"5","PropName":"CHATTAHOOCHEE FALL LINE WMA - VPA TRACTS","Name":"","Surface":"Dirt","Management":"GM","Comments":"","GlobalID":"8bde9cac-27e3-47a1-ae7c-5e4c46b64a23"}},{"type":"Feature","id":368,"geometry":{"type":"Point","coordinates":[-84.6555808382195,32.338764144196]},"properties":{"OBJECTID":368,"GM_Region":"5","PropName":"CHATTAHOOCHEE FALL LINE WMA - VPA TRACTS","Name":"","Surface":"Dirt","Management":"GM","Comments":"","GlobalID":"5c5ad712-52b4-4481-b409-7f821bcd2d9d"}},{"type":"Feature","id":369,"geometry":{"type":"Point","coordinates":[-82.4107164278249,31.6507102093833]},"properties":{"OBJECTID":369,"GM_Region":"4","PropName":"APPLING COUNTY DOVE FIELD VPA","Name":"","Surface":"Dirt","Management":"OTH","Comments":"","GlobalID":"dadafe02-26cb-4f1d-af5c-61ec32d4381a"}},{"type":"Feature","id":370,"geometry":{"type":"Point","coordinates":[-82.4147429474248,31.6495693148518]},"properties":{"OBJECTID":370,"GM_Region":"4","PropName":"APPLING COUNTY DOVE FIELD VPA","Name":"","Surface":"Dirt","Management":"OTH","Comments":"","GlobalID":"db158e93-60a1-4fad-b4a1-a2ba4f13409a"}},{"type":"Feature","id":371,"geometry":{"type":"Point","coordinates":[-82.4092160581252,31.6543571647074]},"properties":{"OBJECTID":371,"GM_Region":"4","PropName":"APPLING COUNTY DOVE FIELD VPA","Name":"","Surface":"Dirt","Management":"OTH","Comments":"","GlobalID":"42318d6b-116b-454f-bba6-b113cc901771"}},{"type":"Feature","id":373,"geometry":{"type":"Point","coordinates":[-82.1838941181166,31.9787969244999]},"properties":{"OBJECTID":373,"GM_Region":"4","PropName":"APPLING COUNTY DOVE FIELD VPA","Name":"","Surface":"Dirt","Management":"OTH","Comments":"","GlobalID":"9383fc1f-b6c7-4c90-80d5-27ecfe0d94b5"}},{"type":"Feature","id":374,"geometry":{"type":"Point","coordinates":[-82.1721408389426,31.9675657926868]},"properties":{"OBJECTID":374,"GM_Region":"4","PropName":"APPLING COUNTY DOVE FIELD VPA","Name":"","Surface":"Dirt","Management":"OTH","Comments":"","GlobalID":"8ad9f70c-dea2-415b-864c-ece8eea2c6fd"}},{"type":"Feature","id":376,"geometry":{"type":"Point","coordinates":[-84.6218541943727,32.5236899247142]},"properties":{"OBJECTID":376,"GM_Region":"5","PropName":"CHATTAHOOCHEE FALL LINE WMA - VPA TRACTS","Name":"","Surface":"Dirt","Management":"GM","Comments":"","GlobalID":"deca6881-244e-418e-a913-b154af8ff46e"}},{"type":"Feature","id":377,"geometry":{"type":"Point","coordinates":[-82.4555609394783,32.5305360042153]},"properties":{"OBJECTID":377,"GM_Region":"4","PropName":"OHOOPEE DUNES WMA","Name":"","Surface":"Dirt","Management":"WCS","Comments":"","GlobalID":"e4d15936-54c5-44fd-b2c2-ca222f07c93f"}},{"type":"Feature","id":378,"geometry":{"type":"Point","coordinates":[-82.429946224337,32.6294493617485]},"properties":{"OBJECTID":378,"GM_Region":"4","PropName":"OHOOPEE DUNES WMA","Name":"","Surface":"Dirt","Management":"WCS","Comments":"","GlobalID":"1163496c-7a81-4b83-b647-e22b23959dbb"}}]}